category,location_type,location,context,outcome_status,persistent_id,id,location_subtype,month,city
anti-social-behaviour,Force,"{'latitude': '51.509491', 'street': {'id': 1678539, 'name': 'On or near William Iv Street'}, 'longitude': '-0.125924'}",,,,125213997,,2024-12,London
anti-social-behaviour,Force,"{'latitude': '51.512300', 'street': {'id': 1678389, 'name': 'On or near Theatre/concert Hall'}, 'longitude': '-0.128388'}",,,,125217447,,2024-12,London
anti-social-behaviour,Force,"{'latitude': '51.509396', 'street': {'id': 1678091, 'name': 'On or near Orange Street'}, 'longitude': '-0.130626'}",,,,125217418,,2024-12,London
anti-social-behaviour,Force,"{'latitude': '51.500978', 'street': {'id': 1678704, 'name': 'On or near Bridge Street'}, 'longitude': '-0.125524'}",,,,125002694,,2024-12,London
anti-social-behaviour,Force,"{'latitude': '51.511783', 'street': {'id': 1678199, 'name': 'On or near Nightclub'}, 'longitude': '-0.129778'}",,,,125216417,,2024-12,London
anti-social-behaviour,Force,"{'latitude': '51.500978', 'street': {'id': 1678704, 'name': 'On or near Bridge Street'}, 'longitude': '-0.125524'}",,,,125005211,,2024-12,London
anti-social-behaviour,Force,"{'latitude': '51.503496', 'street': {'id': 1681772, 'name': 'On or near Hatfields'}, 'longitude': '-0.106473'}",,,,125218950,,2024-12,London
anti-social-behaviour,Force,"{'latitude': '51.509251', 'street': {'id': 1677545, 'name': ""On or near St James's Market""}, 'longitude': '-0.133398'}",,,,125210075,,2024-12,London
anti-social-behaviour,Force,"{'latitude': '51.513064', 'street': {'id': 1678198, 'name': 'On or near Shaftesbury Avenue'}, 'longitude': '-0.129438'}",,,,125210729,,2024-12,London
anti-social-behaviour,Force,"{'latitude': '51.511623', 'street': {'id': 1678738, 'name': 'On or near Rose Street'}, 'longitude': '-0.125951'}",,,,125219855,,2024-12,London
anti-social-behaviour,Force,"{'latitude': '51.511534', 'street': {'id': 1678076, 'name': 'On or near Lisle Street'}, 'longitude': '-0.130495'}",,,,125219520,,2024-12,London
anti-social-behaviour,Force,"{'latitude': '51.509251', 'street': {'id': 1677545, 'name': ""On or near St James's Market""}, 'longitude': '-0.133398'}",,,,125217111,,2024-12,London
anti-social-behaviour,Force,"{'latitude': '51.510942', 'street': {'id': 1677925, 'name': 'On or near Leicester Street'}, 'longitude': '-0.131196'}",,,,125217738,,2024-12,London
anti-social-behaviour,Force,"{'latitude': '51.503196', 'street': {'id': 1678183, 'name': 'On or near Downing Street'}, 'longitude': '-0.127032'}",,,,125218555,,2024-12,London
anti-social-behaviour,Force,"{'latitude': '51.518405', 'street': {'id': 1679695, 'name': 'On or near Procter Street'}, 'longitude': '-0.119302'}",,,,125211771,,2024-12,London
anti-social-behaviour,Force,"{'latitude': '51.493974', 'street': {'id': 1678689, 'name': 'On or near Thorney Street'}, 'longitude': '-0.126157'}",,,,125211856,,2024-12,London
anti-social-behaviour,Force,"{'latitude': '51.503196', 'street': {'id': 1678183, 'name': 'On or near Downing Street'}, 'longitude': '-0.127032'}",,,,125212510,,2024-12,London
anti-social-behaviour,Force,"{'latitude': '51.513575', 'street': {'id': 1676335, 'name': 'On or near Pollen Street'}, 'longitude': '-0.142373'}",,,,125213077,,2024-12,London
anti-social-behaviour,Force,"{'latitude': '51.495936', 'street': {'id': 1676456, 'name': 'On or near Carlisle Place'}, 'longitude': '-0.141491'}",,,,125216626,,2024-12,London
anti-social-behaviour,Force,"{'latitude': '51.509491', 'street': {'id': 1678539, 'name': 'On or near William Iv Street'}, 'longitude': '-0.125924'}",,,,125216406,,2024-12,London
anti-social-behaviour,Force,"{'latitude': '51.514408', 'street': {'id': 1678779, 'name': 'On or near Neal Street'}, 'longitude': '-0.125780'}",,,,125216347,,2024-12,London
anti-social-behaviour,Force,"{'latitude': '51.502823', 'street': {'id': 1679478, 'name': 'On or near Theme/adventure Park'}, 'longitude': '-0.119257'}",,,,125219099,,2024-12,London
anti-social-behaviour,Force,"{'latitude': '51.512059', 'street': {'id': 1679743, 'name': 'On or near A301'}, 'longitude': '-0.118929'}",,,,125213396,,2024-12,London
anti-social-behaviour,Force,"{'latitude': '51.509491', 'street': {'id': 1678539, 'name': 'On or near William Iv Street'}, 'longitude': '-0.125924'}",,,,125213430,,2024-12,London
anti-social-behaviour,Force,"{'latitude': '51.509251', 'street': {'id': 1677545, 'name': ""On or near St James's Market""}, 'longitude': '-0.133398'}",,,,125213606,,2024-12,London
anti-social-behaviour,Force,"{'latitude': '51.509944', 'street': {'id': 1678386, 'name': 'On or near Theatre/concert Hall'}, 'longitude': '-0.127807'}",,,,125219087,,2024-12,London
anti-social-behaviour,Force,"{'latitude': '51.514012', 'street': {'id': 1677997, 'name': 'On or near Nightclub'}, 'longitude': '-0.131078'}",,,,125214247,,2024-12,London
anti-social-behaviour,Force,"{'latitude': '51.506673', 'street': {'id': 1681427, 'name': 'On or near Duchy Street'}, 'longitude': '-0.108877'}",,,,125218486,,2024-12,London
anti-social-behaviour,Force,"{'latitude': '51.513090', 'street': {'id': 1677384, 'name': 'On or near Hopkins Street'}, 'longitude': '-0.135043'}",,,,125216345,,2024-12,London
anti-social-behaviour,Force,"{'latitude': '51.514286', 'street': {'id': 1677663, 'name': 'On or near Chapone Place'}, 'longitude': '-0.132818'}",,,,125216592,,2024-12,London
anti-social-behaviour,Force,"{'latitude': '51.504925', 'street': {'id': 1678852, 'name': 'On or near Horse Guards Avenue'}, 'longitude': '-0.124886'}",,,,125218391,,2024-12,London
anti-social-behaviour,Force,"{'latitude': '51.494110', 'street': {'id': 1678446, 'name': 'On or near Dean Ryle Street'}, 'longitude': '-0.126785'}",,,,125217246,,2024-12,London
anti-social-behaviour,Force,"{'latitude': '51.508990', 'street': {'id': 1676361, 'name': 'On or near Albemarle Street'}, 'longitude': '-0.141882'}",,,,125225619,,2024-12,London
anti-social-behaviour,Force,"{'latitude': '51.507097', 'street': {'id': 1677926, 'name': 'On or near Parking Area'}, 'longitude': '-0.130864'}",,,,125225543,,2024-12,London
anti-social-behaviour,Force,"{'latitude': '51.499894', 'street': {'id': 1677725, 'name': 'On or near Shopping Area'}, 'longitude': '-0.132899'}",,,,125225208,,2024-12,London
anti-social-behaviour,Force,"{'latitude': '51.500978', 'street': {'id': 1678704, 'name': 'On or near Bridge Street'}, 'longitude': '-0.125524'}",,,,125224659,,2024-12,London
anti-social-behaviour,Force,"{'latitude': '51.515088', 'street': {'id': 1676649, 'name': 'On or near Hills Place'}, 'longitude': '-0.140222'}",,,,125217812,,2024-12,London
anti-social-behaviour,Force,"{'latitude': '51.513601', 'street': {'id': 1677939, 'name': 'On or near Frith Street'}, 'longitude': '-0.131534'}",,,,125224406,,2024-12,London
anti-social-behaviour,Force,"{'latitude': '51.514536', 'street': {'id': 1676666, 'name': 'On or near Nightclub'}, 'longitude': '-0.140043'}",,,,125222785,,2024-12,London
anti-social-behaviour,Force,"{'latitude': '51.494818', 'street': {'id': 1679973, 'name': 'On or near Pratt Walk'}, 'longitude': '-0.117089'}",,,,125222320,,2024-12,London
anti-social-behaviour,Force,"{'latitude': '51.506610', 'street': {'id': 1677297, 'name': ""On or near St James's Square""}, 'longitude': '-0.135250'}",,,,125222193,,2024-12,London
anti-social-behaviour,Force,"{'latitude': '51.506985', 'street': {'id': 1678839, 'name': 'On or near Northumberland Avenue'}, 'longitude': '-0.124975'}",,,,125221984,,2024-12,London
anti-social-behaviour,Force,"{'latitude': '51.504717', 'street': {'id': 1675503, 'name': 'On or near Down Street Mews'}, 'longitude': '-0.148022'}",,,,125220682,,2024-12,London
anti-social-behaviour,Force,"{'latitude': '51.513470', 'street': {'id': 1677129, 'name': 'On or near Broadwick Street'}, 'longitude': '-0.136339'}",,,,125220117,,2024-12,London
anti-social-behaviour,Force,"{'latitude': '51.507576', 'street': {'id': 1676403, 'name': 'On or near Nightclub'}, 'longitude': '-0.141776'}",,,,125219695,,2024-12,London
anti-social-behaviour,Force,"{'latitude': '51.506334', 'street': {'id': 1677193, 'name': 'On or near Conference/exhibition Centre'}, 'longitude': '-0.136010'}",,,,125218334,,2024-12,London
anti-social-behaviour,Force,"{'latitude': '51.507159', 'street': {'id': 1682020, 'name': 'On or near Rennie Street'}, 'longitude': '-0.105571'}",,,,125214975,,2024-12,London
anti-social-behaviour,Force,"{'latitude': '51.499042', 'street': {'id': 1680867, 'name': 'On or near Lambeth North'}, 'longitude': '-0.111930'}",,,,125218670,,2024-12,London
anti-social-behaviour,Force,"{'latitude': '51.516341', 'street': {'id': 1679597, 'name': 'On or near Nightclub'}, 'longitude': '-0.120151'}",,,,125218648,,2024-12,London
anti-social-behaviour,Force,"{'latitude': '51.507725', 'street': {'id': 1678750, 'name': 'On or near Corner House Street'}, 'longitude': '-0.125708'}",,,,125215216,,2024-12,London
anti-social-behaviour,Force,"{'latitude': '51.513288', 'street': {'id': 1675603, 'name': 'On or near South Molton Lane'}, 'longitude': '-0.147530'}",,,,125217245,,2024-12,London
anti-social-behaviour,Force,"{'latitude': '51.515939', 'street': {'id': 1677739, 'name': 'On or near Soho Street'}, 'longitude': '-0.132693'}",,,,125217212,,2024-12,London
anti-social-behaviour,Force,"{'latitude': '51.500211', 'street': {'id': 1678547, 'name': 'On or near A302'}, 'longitude': '-0.126492'}",,,,125219826,,2024-12,London
anti-social-behaviour,Force,"{'latitude': '51.503196', 'street': {'id': 1678183, 'name': 'On or near Downing Street'}, 'longitude': '-0.127032'}",,,,125217197,,2024-12,London
anti-social-behaviour,Force,"{'latitude': '51.507243', 'street': {'id': 1675873, 'name': 'On or near Clarges Street'}, 'longitude': '-0.145729'}",,,,125216143,,2024-12,London
anti-social-behaviour,Force,"{'latitude': '51.506342', 'street': {'id': 1678767, 'name': 'On or near Great Scotland Yard'}, 'longitude': '-0.125794'}",,,,125218329,,2024-12,London
anti-social-behaviour,Force,"{'latitude': '51.511022', 'street': {'id': 1679585, 'name': 'On or near Strand'}, 'longitude': '-0.119880'}",,,,125218311,,2024-12,London
anti-social-behaviour,Force,"{'latitude': '51.499488', 'street': {'id': 1679222, 'name': 'On or near Hospital'}, 'longitude': '-0.118410'}",,,,125216133,,2024-12,London
anti-social-behaviour,Force,"{'latitude': '51.507159', 'street': {'id': 1682020, 'name': 'On or near Rennie Street'}, 'longitude': '-0.105571'}",,,,125219483,,2024-12,London
anti-social-behaviour,Force,"{'latitude': '51.515004', 'street': {'id': 1678816, 'name': 'On or near B401'}, 'longitude': '-0.125352'}",,,,125219446,,2024-12,London
anti-social-behaviour,Force,"{'latitude': '51.507725', 'street': {'id': 1678750, 'name': 'On or near Corner House Street'}, 'longitude': '-0.125708'}",,,,125220040,,2024-12,London
anti-social-behaviour,Force,"{'latitude': '51.512059', 'street': {'id': 1679743, 'name': 'On or near A301'}, 'longitude': '-0.118929'}",,,,125220498,,2024-12,London
anti-social-behaviour,Force,"{'latitude': '51.501162', 'street': {'id': 1680084, 'name': 'On or near Addington Street'}, 'longitude': '-0.116252'}",,,,125220254,,2024-12,London
anti-social-behaviour,Force,"{'latitude': '51.515004', 'street': {'id': 1678816, 'name': 'On or near B401'}, 'longitude': '-0.125352'}",,,,125219420,,2024-12,London
anti-social-behaviour,Force,"{'latitude': '51.510468', 'street': {'id': 1678029, 'name': 'On or near Leicester Square'}, 'longitude': '-0.130769'}",,,,125220555,,2024-12,London
anti-social-behaviour,Force,"{'latitude': '51.496320', 'street': {'id': 1676802, 'name': 'On or near Thirleby Road'}, 'longitude': '-0.138508'}",,,,125216129,,2024-12,London
anti-social-behaviour,Force,"{'latitude': '51.514211', 'street': {'id': 1678632, 'name': 'On or near Monmouth Street'}, 'longitude': '-0.126984'}",,,,125220969,,2024-12,London
anti-social-behaviour,Force,"{'latitude': '51.495415', 'street': {'id': 1678026, 'name': 'On or near Monck Street'}, 'longitude': '-0.130794'}",,,,125219363,,2024-12,London
anti-social-behaviour,Force,"{'latitude': '51.511022', 'street': {'id': 1679585, 'name': 'On or near Strand'}, 'longitude': '-0.119880'}",,,,125219052,,2024-12,London
anti-social-behaviour,Force,"{'latitude': '51.500253', 'street': {'id': 1678686, 'name': 'On or near St Margaret Street'}, 'longitude': '-0.126317'}",,,,125219304,,2024-12,London
anti-social-behaviour,Force,"{'latitude': '51.513724', 'street': {'id': 1490731, 'name': 'On or near Fleet Street'}, 'longitude': '-0.111756'}",,,,125222300,,2024-12,London
anti-social-behaviour,Force,"{'latitude': '51.515984', 'street': {'id': 1679703, 'name': 'On or near Conference/exhibition Centre'}, 'longitude': '-0.118595'}",,,,125218914,,2024-12,London
anti-social-behaviour,Force,"{'latitude': '51.510468', 'street': {'id': 1678029, 'name': 'On or near Leicester Square'}, 'longitude': '-0.130769'}",,,,125216116,,2024-12,London
anti-social-behaviour,Force,"{'latitude': '51.514286', 'street': {'id': 1677663, 'name': 'On or near Chapone Place'}, 'longitude': '-0.132818'}",,,,125215319,,2024-12,London
anti-social-behaviour,Force,"{'latitude': '51.504066', 'street': {'id': 1681189, 'name': 'On or near Theatre/concert Hall'}, 'longitude': '-0.110037'}",,,,125215453,,2024-12,London
anti-social-behaviour,Force,"{'latitude': '51.511312', 'street': {'id': 1677127, 'name': 'On or near Lower James Street'}, 'longitude': '-0.136326'}",,,,125218251,,2024-12,London
anti-social-behaviour,Force,"{'latitude': '51.507623', 'street': {'id': 1678103, 'name': 'On or near Cockspur Street'}, 'longitude': '-0.130006'}",,,,125222314,,2024-12,London
anti-social-behaviour,Force,"{'latitude': '51.513150', 'street': {'id': 1676870, 'name': 'On or near Carnaby Street'}, 'longitude': '-0.138845'}",,,,125222616,,2024-12,London
anti-social-behaviour,Force,"{'latitude': '51.517265', 'street': {'id': 1678861, 'name': 'On or near Museum Street'}, 'longitude': '-0.125071'}",,,,125215018,,2024-12,London
anti-social-behaviour,Force,"{'latitude': '51.512980', 'street': {'id': 1678970, 'name': 'On or near Covent Garden'}, 'longitude': '-0.124210'}",,,,125218218,,2024-12,London
anti-social-behaviour,Force,"{'latitude': '51.509929', 'street': {'id': 1676830, 'name': 'On or near Sackville Street'}, 'longitude': '-0.138703'}",,,,125219291,,2024-12,London
anti-social-behaviour,Force,"{'latitude': '51.515753', 'street': {'id': 1676083, 'name': ""On or near John Prince's Street""}, 'longitude': '-0.143092'}",,,,125218059,,2024-12,London
anti-social-behaviour,Force,"{'latitude': '51.506736', 'street': {'id': 1678642, 'name': ""On or near Craig's Court""}, 'longitude': '-0.126800'}",,,,125215433,,2024-12,London
anti-social-behaviour,Force,"{'latitude': '51.510295', 'street': {'id': 1677826, 'name': 'On or near Coventry Street'}, 'longitude': '-0.132318'}",,,,125216031,,2024-12,London
anti-social-behaviour,Force,"{'latitude': '51.510468', 'street': {'id': 1678029, 'name': 'On or near Leicester Square'}, 'longitude': '-0.130769'}",,,,125218003,,2024-12,London
anti-social-behaviour,Force,"{'latitude': '51.513150', 'street': {'id': 1676870, 'name': 'On or near Carnaby Street'}, 'longitude': '-0.138845'}",,,,125219777,,2024-12,London
anti-social-behaviour,Force,"{'latitude': '51.519933', 'street': {'id': 1677494, 'name': 'On or near Shopping Area'}, 'longitude': '-0.133899'}",,,,125223775,,2024-12,London
anti-social-behaviour,Force,"{'latitude': '51.518687', 'street': {'id': 1679965, 'name': 'On or near Eagle Street'}, 'longitude': '-0.117820'}",,,,125224098,,2024-12,London
anti-social-behaviour,Force,"{'latitude': '51.514867', 'street': {'id': 1676714, 'name': 'On or near Further/higher Educational Building'}, 'longitude': '-0.138790'}",,,,125219538,,2024-12,London
anti-social-behaviour,Force,"{'latitude': '51.513205', 'street': {'id': 1678985, 'name': 'On or near Long Acre'}, 'longitude': '-0.124229'}",,,,125217785,,2024-12,London
anti-social-behaviour,Force,"{'latitude': '51.510468', 'street': {'id': 1678029, 'name': 'On or near Leicester Square'}, 'longitude': '-0.130769'}",,,,125218913,,2024-12,London
anti-social-behaviour,Force,"{'latitude': '51.507243', 'street': {'id': 1675873, 'name': 'On or near Clarges Street'}, 'longitude': '-0.145729'}",,,,125218900,,2024-12,London
anti-social-behaviour,Force,"{'latitude': '51.516875', 'street': {'id': 1676380, 'name': 'On or near Nightclub'}, 'longitude': '-0.141807'}",,,,125217926,,2024-12,London
anti-social-behaviour,Force,"{'latitude': '51.495183', 'street': {'id': 1676610, 'name': 'On or near Morpeth Terrace'}, 'longitude': '-0.139952'}",,,,125216330,,2024-12,London
anti-social-behaviour,Force,"{'latitude': '51.518951', 'street': {'id': 1680137, 'name': 'On or near Sandland Street'}, 'longitude': '-0.116354'}",,,,125218893,,2024-12,London
anti-social-behaviour,Force,"{'latitude': '51.500978', 'street': {'id': 1678704, 'name': 'On or near Bridge Street'}, 'longitude': '-0.125524'}",,,,125219651,,2024-12,London
anti-social-behaviour,Force,"{'latitude': '51.514684', 'street': {'id': 1676465, 'name': 'On or near Argyll Street'}, 'longitude': '-0.140844'}",,,,125224855,,2024-12,London
anti-social-behaviour,Force,"{'latitude': '51.498553', 'street': {'id': 1677378, 'name': 'On or near Caxton Street'}, 'longitude': '-0.135291'}",,,,125216290,,2024-12,London
anti-social-behaviour,Force,"{'latitude': '51.513205', 'street': {'id': 1678985, 'name': 'On or near Long Acre'}, 'longitude': '-0.124229'}",,,,125225301,,2024-12,London
anti-social-behaviour,Force,"{'latitude': '51.514537', 'street': {'id': 1678431, 'name': 'On or near St Giles Passage'}, 'longitude': '-0.128196'}",,,,125225868,,2024-12,London
anti-social-behaviour,Force,"{'latitude': '51.517114', 'street': {'id': 1679776, 'name': 'On or near Gate Street'}, 'longitude': '-0.119009'}",,,,125217904,,2024-12,London
anti-social-behaviour,Force,"{'latitude': '51.507394', 'street': {'id': 1678399, 'name': 'On or near Charing Cross'}, 'longitude': '-0.128042'}",,,,125218871,,2024-12,London
anti-social-behaviour,Force,"{'latitude': '51.498335', 'street': {'id': 1677860, 'name': 'On or near Abbey Orchard Street'}, 'longitude': '-0.131193'}",,,,125215125,,2024-12,London
anti-social-behaviour,Force,"{'latitude': '51.505618', 'street': {'id': 1675459, 'name': 'On or near Hertford Street'}, 'longitude': '-0.148735'}",,,,125216969,,2024-12,London
anti-social-behaviour,Force,"{'latitude': '51.517596', 'street': {'id': 1677320, 'name': 'On or near Newman Street'}, 'longitude': '-0.135680'}",,,,125215068,,2024-12,London
anti-social-behaviour,Force,"{'latitude': '51.510729', 'street': {'id': 1677342, 'name': 'On or near Denman Street'}, 'longitude': '-0.135283'}",,,,125218570,,2024-12,London
anti-social-behaviour,Force,"{'latitude': '51.504507', 'street': {'id': 1681118, 'name': 'On or near Cornwall Road'}, 'longitude': '-0.110609'}",,,,125219535,,2024-12,London
anti-social-behaviour,Force,"{'latitude': '51.496949', 'street': {'id': 1677316, 'name': 'On or near Artillery Row'}, 'longitude': '-0.135630'}",,,,125217877,,2024-12,London
anti-social-behaviour,Force,"{'latitude': '51.509962', 'street': {'id': 1676943, 'name': 'On or near Nightclub'}, 'longitude': '-0.137952'}",,,,125218569,,2024-12,London
anti-social-behaviour,Force,"{'latitude': '51.506270', 'street': {'id': 1676932, 'name': 'On or near Pall Mall Place'}, 'longitude': '-0.137627'}",,,,125217876,,2024-12,London
anti-social-behaviour,Force,"{'latitude': '51.500978', 'street': {'id': 1678704, 'name': 'On or near Bridge Street'}, 'longitude': '-0.125524'}",,,,125212428,,2024-12,London
anti-social-behaviour,Force,"{'latitude': '51.516001', 'street': {'id': 1679229, 'name': 'On or near Macklin Street'}, 'longitude': '-0.122471'}",,,,125212766,,2024-12,London
anti-social-behaviour,Force,"{'latitude': '51.512166', 'street': {'id': 1678947, 'name': 'On or near Shopping Area'}, 'longitude': '-0.123818'}",,,,125212779,,2024-12,London
anti-social-behaviour,Force,"{'latitude': '51.513205', 'street': {'id': 1678985, 'name': 'On or near Long Acre'}, 'longitude': '-0.124229'}",,,,125212781,,2024-12,London
anti-social-behaviour,Force,"{'latitude': '51.510623', 'street': {'id': 1678627, 'name': ""On or near St Martin's Lane""}, 'longitude': '-0.126987'}",,,,125213118,,2024-12,London
anti-social-behaviour,Force,"{'latitude': '51.510642', 'street': {'id': 1675200, 'name': 'On or near Carlos Place'}, 'longitude': '-0.149698'}",,,,125213121,,2024-12,London
anti-social-behaviour,Force,"{'latitude': '51.507725', 'street': {'id': 1678750, 'name': 'On or near Corner House Street'}, 'longitude': '-0.125708'}",,,,125213992,,2024-12,London
anti-social-behaviour,Force,"{'latitude': '51.514064', 'street': {'id': 1679774, 'name': 'On or near Kean Street'}, 'longitude': '-0.118890'}",,,,125213696,,2024-12,London
anti-social-behaviour,Force,"{'latitude': '51.515088', 'street': {'id': 1676649, 'name': 'On or near Hills Place'}, 'longitude': '-0.140222'}",,,,125213533,,2024-12,London
anti-social-behaviour,Force,"{'latitude': '51.504507', 'street': {'id': 1681118, 'name': 'On or near Cornwall Road'}, 'longitude': '-0.110609'}",,,,125213901,,2024-12,London
anti-social-behaviour,Force,"{'latitude': '51.516275', 'street': {'id': 1678661, 'name': 'On or near Theatre/concert Hall'}, 'longitude': '-0.126121'}",,,,125214148,,2024-12,London
anti-social-behaviour,Force,"{'latitude': '51.510042', 'street': {'id': 1679444, 'name': 'On or near Savoy Way'}, 'longitude': '-0.120439'}",,,,125213793,,2024-12,London
anti-social-behaviour,Force,"{'latitude': '51.502888', 'street': {'id': 1679979, 'name': 'On or near Chicheley Street'}, 'longitude': '-0.117319'}",,,,125213586,,2024-12,London
anti-social-behaviour,Force,"{'latitude': '51.503196', 'street': {'id': 1678183, 'name': 'On or near Downing Street'}, 'longitude': '-0.127032'}",,,,125213596,,2024-12,London
anti-social-behaviour,Force,"{'latitude': '51.521458', 'street': {'id': 1678167, 'name': 'On or near Malet Street'}, 'longitude': '-0.130305'}",,,,125213598,,2024-12,London
anti-social-behaviour,Force,"{'latitude': '51.514064', 'street': {'id': 1679774, 'name': 'On or near Kean Street'}, 'longitude': '-0.118890'}",,,,125214348,,2024-12,London
anti-social-behaviour,Force,"{'latitude': '51.506342', 'street': {'id': 1678767, 'name': 'On or near Great Scotland Yard'}, 'longitude': '-0.125794'}",,,,125214941,,2024-12,London
anti-social-behaviour,Force,"{'latitude': '51.512078', 'street': {'id': 1676378, 'name': 'On or near New Burlington Place'}, 'longitude': '-0.141526'}",,,,125215180,,2024-12,London
anti-social-behaviour,Force,"{'latitude': '51.514684', 'street': {'id': 1676465, 'name': 'On or near Argyll Street'}, 'longitude': '-0.140844'}",,,,125215183,,2024-12,London
anti-social-behaviour,Force,"{'latitude': '51.511783', 'street': {'id': 1678199, 'name': 'On or near Nightclub'}, 'longitude': '-0.129778'}",,,,125214069,,2024-12,London
anti-social-behaviour,Force,"{'latitude': '51.498053', 'street': {'id': 1678128, 'name': 'On or near Great Smith Street'}, 'longitude': '-0.129879'}",,,,125214452,,2024-12,London
anti-social-behaviour,Force,"{'latitude': '51.513370', 'street': {'id': 1676871, 'name': 'On or near Newburgh Street'}, 'longitude': '-0.138519'}",,,,125214845,,2024-12,London
anti-social-behaviour,Force,"{'latitude': '51.515684', 'street': {'id': 1677259, 'name': 'On or near Nightclub'}, 'longitude': '-0.135874'}",,,,125214925,,2024-12,London
anti-social-behaviour,Force,"{'latitude': '51.517741', 'street': {'id': 1676209, 'name': 'On or near Langham Place'}, 'longitude': '-0.143126'}",,,,125214946,,2024-12,London
anti-social-behaviour,Force,"{'latitude': '51.514209', 'street': {'id': 1677099, 'name': 'On or near Parking Area'}, 'longitude': '-0.137000'}",,,,125214949,,2024-12,London
anti-social-behaviour,Force,"{'latitude': '51.507970', 'street': {'id': 1677656, 'name': 'On or near Charles Ii Street'}, 'longitude': '-0.133162'}",,,,125214668,,2024-12,London
anti-social-behaviour,Force,"{'latitude': '51.496466', 'street': {'id': 1676405, 'name': 'On or near Shopping Area'}, 'longitude': '-0.141499'}",,,,125214735,,2024-12,London
anti-social-behaviour,Force,"{'latitude': '51.512855', 'street': {'id': 1678860, 'name': 'On or near B402'}, 'longitude': '-0.124820'}",,,,125214738,,2024-12,London
anti-social-behaviour,Force,"{'latitude': '51.515449', 'street': {'id': 1679081, 'name': 'On or near Drury Lane'}, 'longitude': '-0.123373'}",,,,125214811,,2024-12,London
anti-social-behaviour,Force,"{'latitude': '51.509491', 'street': {'id': 1678539, 'name': 'On or near William Iv Street'}, 'longitude': '-0.125924'}",,,,125215629,,2024-12,London
anti-social-behaviour,Force,"{'latitude': '51.510266', 'street': {'id': 1676722, 'name': 'On or near Vigo Street'}, 'longitude': '-0.139006'}",,,,125215630,,2024-12,London
anti-social-behaviour,Force,"{'latitude': '51.507394', 'street': {'id': 1678399, 'name': 'On or near Charing Cross'}, 'longitude': '-0.128042'}",,,,125217847,,2024-12,London
anti-social-behaviour,Force,"{'latitude': '51.510520', 'street': {'id': 1677019, 'name': 'On or near Glasshouse Street'}, 'longitude': '-0.137439'}",,,,125211023,,2024-12,London
anti-social-behaviour,Force,"{'latitude': '51.512300', 'street': {'id': 1678389, 'name': 'On or near Theatre/concert Hall'}, 'longitude': '-0.128388'}",,,,125217964,,2024-12,London
anti-social-behaviour,Force,"{'latitude': '51.495129', 'street': {'id': 1676936, 'name': 'On or near Francis Street'}, 'longitude': '-0.138240'}",,,,125217337,,2024-12,London
anti-social-behaviour,Force,"{'latitude': '51.507938', 'street': {'id': 1678191, 'name': 'On or near Trafalgar Square'}, 'longitude': '-0.128898'}",,,,125217270,,2024-12,London
anti-social-behaviour,Force,"{'latitude': '51.515088', 'street': {'id': 1676649, 'name': 'On or near Hills Place'}, 'longitude': '-0.140222'}",,,,125217272,,2024-12,London
anti-social-behaviour,Force,"{'latitude': '51.510373', 'street': {'id': 1679248, 'name': 'On or near Savoy Court'}, 'longitude': '-0.120887'}",,,,125216861,,2024-12,London
anti-social-behaviour,Force,"{'latitude': '51.519697', 'street': {'id': 1677336, 'name': 'On or near A5204'}, 'longitude': '-0.134917'}",,,,125216865,,2024-12,London
anti-social-behaviour,Force,"{'latitude': '51.516623', 'street': {'id': 1677604, 'name': 'On or near Nightclub'}, 'longitude': '-0.132976'}",,,,125216036,,2024-12,London
anti-social-behaviour,Force,"{'latitude': '51.509158', 'street': {'id': 1677370, 'name': 'On or near Theatre/concert Hall'}, 'longitude': '-0.134930'}",,,,125215947,,2024-12,London
anti-social-behaviour,Force,"{'latitude': '51.507284', 'street': {'id': 1675587, 'name': 'On or near Queen Street'}, 'longitude': '-0.147168'}",,,,125215923,,2024-12,London
anti-social-behaviour,Force,"{'latitude': '51.514537', 'street': {'id': 1678431, 'name': 'On or near St Giles Passage'}, 'longitude': '-0.128196'}",,,,125215429,,2024-12,London
anti-social-behaviour,Force,"{'latitude': '51.511783', 'street': {'id': 1678199, 'name': 'On or near Nightclub'}, 'longitude': '-0.129778'}",,,,125215699,,2024-12,London
anti-social-behaviour,Force,"{'latitude': '51.502888', 'street': {'id': 1679979, 'name': 'On or near Chicheley Street'}, 'longitude': '-0.117319'}",,,,125215195,,2024-12,London
anti-social-behaviour,Force,"{'latitude': '51.515939', 'street': {'id': 1677739, 'name': 'On or near Soho Street'}, 'longitude': '-0.132693'}",,,,125215077,,2024-12,London
anti-social-behaviour,Force,"{'latitude': '51.511312', 'street': {'id': 1677127, 'name': 'On or near Lower James Street'}, 'longitude': '-0.136326'}",,,,125215190,,2024-12,London
anti-social-behaviour,Force,"{'latitude': '51.499488', 'street': {'id': 1679222, 'name': 'On or near Hospital'}, 'longitude': '-0.118410'}",,,,125214328,,2024-12,London
anti-social-behaviour,Force,"{'latitude': '51.513827', 'street': {'id': 1676355, 'name': 'On or near Hanover Street'}, 'longitude': '-0.142363'}",,,,125214654,,2024-12,London
anti-social-behaviour,Force,"{'latitude': '51.514012', 'street': {'id': 1677997, 'name': 'On or near Nightclub'}, 'longitude': '-0.131078'}",,,,125214043,,2024-12,London
anti-social-behaviour,Force,"{'latitude': '51.507725', 'street': {'id': 1678750, 'name': 'On or near Corner House Street'}, 'longitude': '-0.125708'}",,,,125214000,,2024-12,London
anti-social-behaviour,Force,"{'latitude': '51.512495', 'street': {'id': 1676635, 'name': 'On or near Nightclub'}, 'longitude': '-0.138915'}",,,,125213913,,2024-12,London
anti-social-behaviour,Force,"{'latitude': '51.517996', 'street': {'id': 1677371, 'name': 'On or near Newman Passage'}, 'longitude': '-0.135361'}",,,,125213987,,2024-12,London
anti-social-behaviour,Force,"{'latitude': '51.510152', 'street': {'id': 1677738, 'name': 'On or near Theatre/concert Hall'}, 'longitude': '-0.132382'}",,,,125213618,,2024-12,London
anti-social-behaviour,Force,"{'latitude': '51.515753', 'street': {'id': 1676083, 'name': ""On or near John Prince's Street""}, 'longitude': '-0.143092'}",,,,125213852,,2024-12,London
anti-social-behaviour,Force,"{'latitude': '51.515939', 'street': {'id': 1677739, 'name': 'On or near Soho Street'}, 'longitude': '-0.132693'}",,,,125213356,,2024-12,London
anti-social-behaviour,Force,"{'latitude': '51.510642', 'street': {'id': 1675200, 'name': 'On or near Carlos Place'}, 'longitude': '-0.149698'}",,,,125213536,,2024-12,London
anti-social-behaviour,Force,"{'latitude': '51.513575', 'street': {'id': 1676335, 'name': 'On or near Pollen Street'}, 'longitude': '-0.142373'}",,,,125212394,,2024-12,London
anti-social-behaviour,Force,"{'latitude': '51.510295', 'street': {'id': 1677826, 'name': 'On or near Coventry Street'}, 'longitude': '-0.132318'}",,,,125211788,,2024-12,London
anti-social-behaviour,Force,"{'latitude': '51.511312', 'street': {'id': 1677127, 'name': 'On or near Lower James Street'}, 'longitude': '-0.136326'}",,,,125211904,,2024-12,London
anti-social-behaviour,Force,"{'latitude': '51.498284', 'street': {'id': 1681059, 'name': 'On or near A302'}, 'longitude': '-0.110074'}",,,,125211432,,2024-12,London
anti-social-behaviour,Force,"{'latitude': '51.498284', 'street': {'id': 1681059, 'name': 'On or near A302'}, 'longitude': '-0.110074'}",,,,125211433,,2024-12,London
anti-social-behaviour,Force,"{'latitude': '51.518845', 'street': {'id': 1676740, 'name': 'On or near Bourlet Close'}, 'longitude': '-0.139550'}",,,,125211047,,2024-12,London
anti-social-behaviour,Force,"{'latitude': '51.500396', 'street': {'id': 1680975, 'name': 'On or near Baylis Road'}, 'longitude': '-0.111082'}",,,,125211197,,2024-12,London
anti-social-behaviour,Force,"{'latitude': '51.511022', 'street': {'id': 1679585, 'name': 'On or near Strand'}, 'longitude': '-0.119880'}",,,,125211153,,2024-12,London
anti-social-behaviour,Force,"{'latitude': '51.519092', 'street': {'id': 1679240, 'name': 'On or near Bloomsbury Square'}, 'longitude': '-0.122330'}",,,,125211031,,2024-12,London
anti-social-behaviour,Force,"{'latitude': '51.496508', 'street': {'id': 1676664, 'name': 'On or near Ambrosden Avenue'}, 'longitude': '-0.139610'}",,,,125211034,,2024-12,London
anti-social-behaviour,Force,"{'latitude': '51.510468', 'street': {'id': 1678029, 'name': 'On or near Leicester Square'}, 'longitude': '-0.130769'}",,,,125211035,,2024-12,London
anti-social-behaviour,Force,"{'latitude': '51.515430', 'street': {'id': 1679223, 'name': 'On or near Theatre/concert Hall'}, 'longitude': '-0.122797'}",,,,125210576,,2024-12,London
anti-social-behaviour,Force,"{'latitude': '51.514112', 'street': {'id': 1677546, 'name': 'On or near Richmond Buildings'}, 'longitude': '-0.133690'}",,,,125210565,,2024-12,London
anti-social-behaviour,Force,"{'latitude': '51.501162', 'street': {'id': 1680084, 'name': 'On or near Addington Street'}, 'longitude': '-0.116252'}",,,,125210538,,2024-12,London
anti-social-behaviour,Force,"{'latitude': '51.514369', 'street': {'id': 1679259, 'name': 'On or near Drury Lane'}, 'longitude': '-0.121645'}",,,,125210504,,2024-12,London
anti-social-behaviour,Force,"{'latitude': '51.509496', 'street': {'id': 1675494, 'name': 'On or near Farm Street'}, 'longitude': '-0.148318'}",,,,125210332,,2024-12,London
anti-social-behaviour,Force,"{'latitude': '51.513970', 'street': {'id': 1677442, 'name': 'On or near Wardour Street'}, 'longitude': '-0.134387'}",,,,125210262,,2024-12,London
anti-social-behaviour,Force,"{'latitude': '51.513019', 'street': {'id': 1678021, 'name': 'On or near Romilly Street'}, 'longitude': '-0.130592'}",,,,125210079,,2024-12,London
anti-social-behaviour,Force,"{'latitude': '51.507725', 'street': {'id': 1678750, 'name': 'On or near Corner House Street'}, 'longitude': '-0.125708'}",,,,125210207,,2024-12,London
anti-social-behaviour,Force,"{'latitude': '51.497497', 'street': {'id': 1677447, 'name': 'On or near Strutton Ground'}, 'longitude': '-0.133922'}",,,,125210052,,2024-12,London
anti-social-behaviour,Force,"{'latitude': '51.501941', 'street': {'id': 1680853, 'name': 'On or near Lower Road'}, 'longitude': '-0.112127'}",,,,125210005,,2024-12,London
anti-social-behaviour,Force,"{'latitude': '51.515088', 'street': {'id': 1676649, 'name': 'On or near Hills Place'}, 'longitude': '-0.140222'}",,,,125210010,,2024-12,London
anti-social-behaviour,Force,"{'latitude': '51.506236', 'street': {'id': 1676347, 'name': 'On or near Parking Area'}, 'longitude': '-0.141322'}",,,,125210080,,2024-12,London
anti-social-behaviour,Force,"{'latitude': '51.506736', 'street': {'id': 1678642, 'name': ""On or near Craig's Court""}, 'longitude': '-0.126800'}",,,,125210138,,2024-12,London
anti-social-behaviour,Force,"{'latitude': '51.511012', 'street': {'id': 1675865, 'name': 'On or near Bourdon Street'}, 'longitude': '-0.145792'}",,,,125210338,,2024-12,London
anti-social-behaviour,Force,"{'latitude': '51.513052', 'street': {'id': 1677758, 'name': 'On or near Bourchier Street'}, 'longitude': '-0.132681'}",,,,125210339,,2024-12,London
anti-social-behaviour,Force,"{'latitude': '51.513575', 'street': {'id': 1676335, 'name': 'On or near Pollen Street'}, 'longitude': '-0.142373'}",,,,125210343,,2024-12,London
anti-social-behaviour,Force,"{'latitude': '51.503496', 'street': {'id': 1681772, 'name': 'On or near Hatfields'}, 'longitude': '-0.106473'}",,,,125210839,,2024-12,London
anti-social-behaviour,Force,"{'latitude': '51.503196', 'street': {'id': 1678183, 'name': 'On or near Downing Street'}, 'longitude': '-0.127032'}",,,,125210884,,2024-12,London
anti-social-behaviour,Force,"{'latitude': '51.507623', 'street': {'id': 1678103, 'name': 'On or near Cockspur Street'}, 'longitude': '-0.130006'}",,,,125210886,,2024-12,London
anti-social-behaviour,Force,"{'latitude': '51.502888', 'street': {'id': 1679979, 'name': 'On or near Chicheley Street'}, 'longitude': '-0.117319'}",,,,125210441,,2024-12,London
anti-social-behaviour,Force,"{'latitude': '51.500253', 'street': {'id': 1678686, 'name': 'On or near St Margaret Street'}, 'longitude': '-0.126317'}",,,,125210813,,2024-12,London
anti-social-behaviour,Force,"{'latitude': '51.516341', 'street': {'id': 1679597, 'name': 'On or near Nightclub'}, 'longitude': '-0.120151'}",,,,125210822,,2024-12,London
anti-social-behaviour,Force,"{'latitude': '51.514369', 'street': {'id': 1679259, 'name': 'On or near Drury Lane'}, 'longitude': '-0.121645'}",,,,125210677,,2024-12,London
anti-social-behaviour,Force,"{'latitude': '51.516618', 'street': {'id': 1676725, 'name': 'On or near Shopping Area'}, 'longitude': '-0.139226'}",,,,125210736,,2024-12,London
anti-social-behaviour,Force,"{'latitude': '51.495591', 'street': {'id': 1677126, 'name': 'On or near Greencoat Row'}, 'longitude': '-0.136794'}",,,,125211018,,2024-12,London
anti-social-behaviour,Force,"{'latitude': '51.512802', 'street': {'id': 1679061, 'name': 'On or near James Street'}, 'longitude': '-0.123770'}",,,,125211022,,2024-12,London
anti-social-behaviour,Force,"{'latitude': '51.514369', 'street': {'id': 1679259, 'name': 'On or near Drury Lane'}, 'longitude': '-0.121645'}",,,,125211026,,2024-12,London
anti-social-behaviour,Force,"{'latitude': '51.514684', 'street': {'id': 1676465, 'name': 'On or near Argyll Street'}, 'longitude': '-0.140844'}",,,,125211042,,2024-12,London
anti-social-behaviour,Force,"{'latitude': '51.517701', 'street': {'id': 1678590, 'name': 'On or near Willoughby Street'}, 'longitude': '-0.127014'}",,,,125211254,,2024-12,London
anti-social-behaviour,Force,"{'latitude': '51.513205', 'street': {'id': 1678985, 'name': 'On or near Long Acre'}, 'longitude': '-0.124229'}",,,,125211066,,2024-12,London
anti-social-behaviour,Force,"{'latitude': '51.503196', 'street': {'id': 1678183, 'name': 'On or near Downing Street'}, 'longitude': '-0.127032'}",,,,125211070,,2024-12,London
anti-social-behaviour,Force,"{'latitude': '51.511925', 'street': {'id': 1677105, 'name': 'On or near Bridle Lane'}, 'longitude': '-0.136431'}",,,,125211073,,2024-12,London
anti-social-behaviour,Force,"{'latitude': '51.504066', 'street': {'id': 1681189, 'name': 'On or near Theatre/concert Hall'}, 'longitude': '-0.110037'}",,,,125211075,,2024-12,London
anti-social-behaviour,Force,"{'latitude': '51.512300', 'street': {'id': 1678389, 'name': 'On or near Theatre/concert Hall'}, 'longitude': '-0.128388'}",,,,125211994,,2024-12,London
anti-social-behaviour,Force,"{'latitude': '51.518106', 'street': {'id': 1680014, 'name': 'On or near Race Track'}, 'longitude': '-0.116951'}",,,,125211995,,2024-12,London
anti-social-behaviour,Force,"{'latitude': '51.513052', 'street': {'id': 1677758, 'name': 'On or near Bourchier Street'}, 'longitude': '-0.132681'}",,,,125211806,,2024-12,London
anti-social-behaviour,Force,"{'latitude': '51.515684', 'street': {'id': 1677259, 'name': 'On or near Nightclub'}, 'longitude': '-0.135874'}",,,,125211807,,2024-12,London
anti-social-behaviour,Force,"{'latitude': '51.514112', 'street': {'id': 1677546, 'name': 'On or near Richmond Buildings'}, 'longitude': '-0.133690'}",,,,125211814,,2024-12,London
anti-social-behaviour,Force,"{'latitude': '51.507097', 'street': {'id': 1677926, 'name': 'On or near Parking Area'}, 'longitude': '-0.130864'}",,,,125211819,,2024-12,London
anti-social-behaviour,Force,"{'latitude': '51.516488', 'street': {'id': 1675748, 'name': 'On or near Cavendish Square'}, 'longitude': '-0.145743'}",,,,125212221,,2024-12,London
anti-social-behaviour,Force,"{'latitude': '51.499046', 'street': {'id': 1676069, 'name': 'On or near Palace Place'}, 'longitude': '-0.142561'}",,,,125212222,,2024-12,London
anti-social-behaviour,Force,"{'latitude': '51.499046', 'street': {'id': 1676069, 'name': 'On or near Palace Place'}, 'longitude': '-0.142561'}",,,,125212223,,2024-12,London
anti-social-behaviour,Force,"{'latitude': '51.498553', 'street': {'id': 1677378, 'name': 'On or near Caxton Street'}, 'longitude': '-0.135291'}",,,,125211744,,2024-12,London
anti-social-behaviour,Force,"{'latitude': '51.513046', 'street': {'id': 1679162, 'name': 'On or near Theatre/concert Hall'}, 'longitude': '-0.122679'}",,,,125211984,,2024-12,London
anti-social-behaviour,Force,"{'latitude': '51.510520', 'street': {'id': 1677019, 'name': 'On or near Glasshouse Street'}, 'longitude': '-0.137439'}",,,,125212605,,2024-12,London
anti-social-behaviour,Force,"{'latitude': '51.515449', 'street': {'id': 1679081, 'name': 'On or near Drury Lane'}, 'longitude': '-0.123373'}",,,,125212043,,2024-12,London
anti-social-behaviour,Force,"{'latitude': '51.516178', 'street': {'id': 1677833, 'name': 'On or near Further/higher Educational Building'}, 'longitude': '-0.131904'}",,,,125212068,,2024-12,London
anti-social-behaviour,Force,"{'latitude': '51.511574', 'street': {'id': 1678643, 'name': 'On or near Garrick Street'}, 'longitude': '-0.126271'}",,,,125212528,,2024-12,London
anti-social-behaviour,Force,"{'latitude': '51.515939', 'street': {'id': 1677739, 'name': 'On or near Soho Street'}, 'longitude': '-0.132693'}",,,,125212543,,2024-12,London
anti-social-behaviour,Force,"{'latitude': '51.509786', 'street': {'id': 1678937, 'name': 'On or near Police Station'}, 'longitude': '-0.124658'}",,,,125213270,,2024-12,London
anti-social-behaviour,Force,"{'latitude': '51.510942', 'street': {'id': 1677925, 'name': 'On or near Leicester Street'}, 'longitude': '-0.131196'}",,,,125213059,,2024-12,London
anti-social-behaviour,Force,"{'latitude': '51.515753', 'street': {'id': 1676083, 'name': ""On or near John Prince's Street""}, 'longitude': '-0.143092'}",,,,125213067,,2024-12,London
anti-social-behaviour,Force,"{'latitude': '51.519933', 'street': {'id': 1677494, 'name': 'On or near Shopping Area'}, 'longitude': '-0.133899'}",,,,125220539,,2024-12,London
anti-social-behaviour,Force,"{'latitude': '51.514684', 'street': {'id': 1676465, 'name': 'On or near Argyll Street'}, 'longitude': '-0.140844'}",,,,125220347,,2024-12,London
anti-social-behaviour,Force,"{'latitude': '51.513205', 'street': {'id': 1678985, 'name': 'On or near Long Acre'}, 'longitude': '-0.124229'}",,,,125220416,,2024-12,London
anti-social-behaviour,Force,"{'latitude': '51.506855', 'street': {'id': 1678358, 'name': 'On or near Spring Gardens'}, 'longitude': '-0.128078'}",,,,125220448,,2024-12,London
anti-social-behaviour,Force,"{'latitude': '51.509458', 'street': {'id': 1677786, 'name': 'On or near Nightclub'}, 'longitude': '-0.132280'}",,,,125220489,,2024-12,London
anti-social-behaviour,Force,"{'latitude': '51.513753', 'street': {'id': 1678851, 'name': 'On or near Shelton Street'}, 'longitude': '-0.125331'}",,,,125220801,,2024-12,London
anti-social-behaviour,Force,"{'latitude': '51.500978', 'street': {'id': 1678704, 'name': 'On or near Bridge Street'}, 'longitude': '-0.125524'}",,,,125220565,,2024-12,London
anti-social-behaviour,Force,"{'latitude': '51.493939', 'street': {'id': 1678342, 'name': 'On or near B326'}, 'longitude': '-0.129039'}",,,,125220574,,2024-12,London
anti-social-behaviour,Force,"{'latitude': '51.506541', 'street': {'id': 1675916, 'name': 'On or near Ashburton Place'}, 'longitude': '-0.144533'}",,,,125220617,,2024-12,London
anti-social-behaviour,Force,"{'latitude': '51.495936', 'street': {'id': 1676456, 'name': 'On or near Carlisle Place'}, 'longitude': '-0.141491'}",,,,125221286,,2024-12,London
anti-social-behaviour,Force,"{'latitude': '51.514537', 'street': {'id': 1678431, 'name': 'On or near St Giles Passage'}, 'longitude': '-0.128196'}",,,,125220795,,2024-12,London
anti-social-behaviour,Force,"{'latitude': '51.512408', 'street': {'id': 1679570, 'name': 'On or near Catherine Street'}, 'longitude': '-0.119910'}",,,,125221168,,2024-12,London
anti-social-behaviour,Force,"{'latitude': '51.511790', 'street': {'id': 1677744, 'name': 'On or near A401'}, 'longitude': '-0.132459'}",,,,125221204,,2024-12,London
anti-social-behaviour,Force,"{'latitude': '51.517845', 'street': {'id': 1679284, 'name': 'On or near Further/higher Educational Building'}, 'longitude': '-0.121977'}",,,,125221207,,2024-12,London
anti-social-behaviour,Force,"{'latitude': '51.517741', 'street': {'id': 1676209, 'name': 'On or near Langham Place'}, 'longitude': '-0.143126'}",,,,125221208,,2024-12,London
anti-social-behaviour,Force,"{'latitude': '51.507394', 'street': {'id': 1678399, 'name': 'On or near Charing Cross'}, 'longitude': '-0.128042'}",,,,125220930,,2024-12,London
anti-social-behaviour,Force,"{'latitude': '51.507623', 'street': {'id': 1678103, 'name': 'On or near Cockspur Street'}, 'longitude': '-0.130006'}",,,,125220949,,2024-12,London
anti-social-behaviour,Force,"{'latitude': '51.499042', 'street': {'id': 1680867, 'name': 'On or near Lambeth North'}, 'longitude': '-0.111930'}",,,,125221128,,2024-12,London
anti-social-behaviour,Force,"{'latitude': '51.508087', 'street': {'id': 1678961, 'name': 'On or near Nightclub'}, 'longitude': '-0.124122'}",,,,125221364,,2024-12,London
anti-social-behaviour,Force,"{'latitude': '51.515869', 'street': {'id': 1679355, 'name': 'On or near Parker Street'}, 'longitude': '-0.121554'}",,,,125221374,,2024-12,London
anti-social-behaviour,Force,"{'latitude': '51.497024', 'street': {'id': 1680681, 'name': 'On or near Cosser Street'}, 'longitude': '-0.112777'}",,,,125220739,,2024-12,London
anti-social-behaviour,Force,"{'latitude': '51.518744', 'street': {'id': 1679854, 'name': 'On or near Dane Street'}, 'longitude': '-0.118596'}",,,,125221910,,2024-12,London
anti-social-behaviour,Force,"{'latitude': '51.518897', 'street': {'id': 1680092, 'name': 'On or near Red Lion Street'}, 'longitude': '-0.116904'}",,,,125221443,,2024-12,London
anti-social-behaviour,Force,"{'latitude': '51.507725', 'street': {'id': 1678750, 'name': 'On or near Corner House Street'}, 'longitude': '-0.125708'}",,,,125221851,,2024-12,London
anti-social-behaviour,Force,"{'latitude': '51.507623', 'street': {'id': 1678103, 'name': 'On or near Cockspur Street'}, 'longitude': '-0.130006'}",,,,125221582,,2024-12,London
anti-social-behaviour,Force,"{'latitude': '51.517741', 'street': {'id': 1676209, 'name': 'On or near Langham Place'}, 'longitude': '-0.143126'}",,,,125221055,,2024-12,London
anti-social-behaviour,Force,"{'latitude': '51.506632', 'street': {'id': 1678507, 'name': 'On or near Theatre/concert Hall'}, 'longitude': '-0.127640'}",,,,125221107,,2024-12,London
anti-social-behaviour,Force,"{'latitude': '51.514365', 'street': {'id': 1675924, 'name': 'On or near Princes Street'}, 'longitude': '-0.143408'}",,,,125222023,,2024-12,London
anti-social-behaviour,Force,"{'latitude': '51.518405', 'street': {'id': 1679695, 'name': 'On or near Procter Street'}, 'longitude': '-0.119302'}",,,,125222048,,2024-12,London
anti-social-behaviour,Force,"{'latitude': '51.496238', 'street': {'id': 1678531, 'name': 'On or near Smith Square'}, 'longitude': '-0.127130'}",,,,125221451,,2024-12,London
anti-social-behaviour,Force,"{'latitude': '51.509097', 'street': {'id': 1675613, 'name': 'On or near Nightclub'}, 'longitude': '-0.146936'}",,,,125221462,,2024-12,London
anti-social-behaviour,Force,"{'latitude': '51.512408', 'street': {'id': 1679570, 'name': 'On or near Catherine Street'}, 'longitude': '-0.119910'}",,,,125221529,,2024-12,London
anti-social-behaviour,Force,"{'latitude': '51.507970', 'street': {'id': 1677656, 'name': 'On or near Charles Ii Street'}, 'longitude': '-0.133162'}",,,,125222428,,2024-12,London
anti-social-behaviour,Force,"{'latitude': '51.509496', 'street': {'id': 1675494, 'name': 'On or near Farm Street'}, 'longitude': '-0.148318'}",,,,125222197,,2024-12,London
anti-social-behaviour,Force,"{'latitude': '51.513575', 'street': {'id': 1676335, 'name': 'On or near Pollen Street'}, 'longitude': '-0.142373'}",,,,125222214,,2024-12,London
anti-social-behaviour,Force,"{'latitude': '51.515449', 'street': {'id': 1679081, 'name': 'On or near Drury Lane'}, 'longitude': '-0.123373'}",,,,125221796,,2024-12,London
anti-social-behaviour,Force,"{'latitude': '51.517742', 'street': {'id': 1678770, 'name': 'On or near Little Russell Street'}, 'longitude': '-0.125614'}",,,,125221797,,2024-12,London
anti-social-behaviour,Force,"{'latitude': '51.498335', 'street': {'id': 1677860, 'name': 'On or near Abbey Orchard Street'}, 'longitude': '-0.131193'}",,,,125222611,,2024-12,London
anti-social-behaviour,Force,"{'latitude': '51.501162', 'street': {'id': 1680084, 'name': 'On or near Addington Street'}, 'longitude': '-0.116252'}",,,,125223007,,2024-12,London
anti-social-behaviour,Force,"{'latitude': '51.510295', 'street': {'id': 1677826, 'name': 'On or near Coventry Street'}, 'longitude': '-0.132318'}",,,,125222809,,2024-12,London
anti-social-behaviour,Force,"{'latitude': '51.514582', 'street': {'id': 1678863, 'name': 'On or near Shorts Gardens'}, 'longitude': '-0.125441'}",,,,125223166,,2024-12,London
anti-social-behaviour,Force,"{'latitude': '51.498553', 'street': {'id': 1677378, 'name': 'On or near Caxton Street'}, 'longitude': '-0.135291'}",,,,125223167,,2024-12,London
anti-social-behaviour,Force,"{'latitude': '51.508450', 'street': {'id': 1676091, 'name': 'On or near Nightclub'}, 'longitude': '-0.143266'}",,,,125223238,,2024-12,London
anti-social-behaviour,Force,"{'latitude': '51.511137', 'street': {'id': 1678783, 'name': 'On or near New Row'}, 'longitude': '-0.125914'}",,,,125222375,,2024-12,London
anti-social-behaviour,Force,"{'latitude': '51.519092', 'street': {'id': 1679240, 'name': 'On or near Bloomsbury Square'}, 'longitude': '-0.122330'}",,,,125222459,,2024-12,London
anti-social-behaviour,Force,"{'latitude': '51.516668', 'street': {'id': 1676419, 'name': 'On or near Margaret Street'}, 'longitude': '-0.141210'}",,,,125222686,,2024-12,London
anti-social-behaviour,Force,"{'latitude': '51.517858', 'street': {'id': 1678162, 'name': 'On or near Adeline Place'}, 'longitude': '-0.130120'}",,,,125222777,,2024-12,London
anti-social-behaviour,Force,"{'latitude': '51.509396', 'street': {'id': 1678091, 'name': 'On or near Orange Street'}, 'longitude': '-0.130626'}",,,,125222472,,2024-12,London
anti-social-behaviour,Force,"{'latitude': '51.513575', 'street': {'id': 1676335, 'name': 'On or near Pollen Street'}, 'longitude': '-0.142373'}",,,,125223691,,2024-12,London
anti-social-behaviour,Force,"{'latitude': '51.498553', 'street': {'id': 1677378, 'name': 'On or near Caxton Street'}, 'longitude': '-0.135291'}",,,,125222339,,2024-12,London
anti-social-behaviour,Force,"{'latitude': '51.516001', 'street': {'id': 1679229, 'name': 'On or near Macklin Street'}, 'longitude': '-0.122471'}",,,,125222351,,2024-12,London
anti-social-behaviour,Force,"{'latitude': '51.514286', 'street': {'id': 1677663, 'name': 'On or near Chapone Place'}, 'longitude': '-0.132818'}",,,,125223031,,2024-12,London
anti-social-behaviour,Force,"{'latitude': '51.511022', 'street': {'id': 1679585, 'name': 'On or near Strand'}, 'longitude': '-0.119880'}",,,,125224121,,2024-12,London
anti-social-behaviour,Force,"{'latitude': '51.509097', 'street': {'id': 1675613, 'name': 'On or near Nightclub'}, 'longitude': '-0.146936'}",,,,125222821,,2024-12,London
anti-social-behaviour,Force,"{'latitude': '51.500396', 'street': {'id': 1680975, 'name': 'On or near Baylis Road'}, 'longitude': '-0.111082'}",,,,125222825,,2024-12,London
anti-social-behaviour,Force,"{'latitude': '51.515598', 'street': {'id': 1678536, 'name': 'On or near St Giles High Street'}, 'longitude': '-0.127633'}",,,,125223523,,2024-12,London
anti-social-behaviour,Force,"{'latitude': '51.510520', 'street': {'id': 1677019, 'name': 'On or near Glasshouse Street'}, 'longitude': '-0.137439'}",,,,125223532,,2024-12,London
anti-social-behaviour,Force,"{'latitude': '51.510953', 'street': {'id': 1677692, 'name': 'On or near Nightclub'}, 'longitude': '-0.133012'}",,,,125223533,,2024-12,London
anti-social-behaviour,Force,"{'latitude': '51.513970', 'street': {'id': 1677442, 'name': 'On or near Wardour Street'}, 'longitude': '-0.134387'}",,,,125223575,,2024-12,London
anti-social-behaviour,Force,"{'latitude': '51.513575', 'street': {'id': 1676335, 'name': 'On or near Pollen Street'}, 'longitude': '-0.142373'}",,,,125223325,,2024-12,London
anti-social-behaviour,Force,"{'latitude': '51.513848', 'street': {'id': 1678270, 'name': 'On or near Old Compton Street'}, 'longitude': '-0.129593'}",,,,125223810,,2024-12,London
anti-social-behaviour,Force,"{'latitude': '51.515684', 'street': {'id': 1677259, 'name': 'On or near Nightclub'}, 'longitude': '-0.135874'}",,,,125224267,,2024-12,London
anti-social-behaviour,Force,"{'latitude': '51.498553', 'street': {'id': 1677378, 'name': 'On or near Caxton Street'}, 'longitude': '-0.135291'}",,,,125224287,,2024-12,London
anti-social-behaviour,Force,"{'latitude': '51.496941', 'street': {'id': 1677903, 'name': 'On or near Conference/exhibition Centre'}, 'longitude': '-0.130617'}",,,,125223949,,2024-12,London
anti-social-behaviour,Force,"{'latitude': '51.507623', 'street': {'id': 1678103, 'name': 'On or near Cockspur Street'}, 'longitude': '-0.130006'}",,,,125223970,,2024-12,London
anti-social-behaviour,Force,"{'latitude': '51.498175', 'street': {'id': 1676627, 'name': 'On or near Palace Street'}, 'longitude': '-0.140363'}",,,,125224706,,2024-12,London
anti-social-behaviour,Force,"{'latitude': '51.506327', 'street': {'id': 1675760, 'name': 'On or near Shepherd Market'}, 'longitude': '-0.146357'}",,,,125224426,,2024-12,London
anti-social-behaviour,Force,"{'latitude': '51.498315', 'street': {'id': 1675919, 'name': 'On or near Warwick Row'}, 'longitude': '-0.142994'}",,,,125224488,,2024-12,London
anti-social-behaviour,Force,"{'latitude': '51.507243', 'street': {'id': 1675873, 'name': 'On or near Clarges Street'}, 'longitude': '-0.145729'}",,,,125224000,,2024-12,London
anti-social-behaviour,Force,"{'latitude': '51.514523', 'street': {'id': 1678276, 'name': 'On or near Theatre/concert Hall'}, 'longitude': '-0.129580'}",,,,125224010,,2024-12,London
anti-social-behaviour,Force,"{'latitude': '51.519933', 'street': {'id': 1677494, 'name': 'On or near Shopping Area'}, 'longitude': '-0.133899'}",,,,125224141,,2024-12,London
anti-social-behaviour,Force,"{'latitude': '51.509158', 'street': {'id': 1677370, 'name': 'On or near Theatre/concert Hall'}, 'longitude': '-0.134930'}",,,,125224763,,2024-12,London
anti-social-behaviour,Force,"{'latitude': '51.499692', 'street': {'id': 1680405, 'name': 'On or near Westminster Bridge Road'}, 'longitude': '-0.114266'}",,,,125224767,,2024-12,London
anti-social-behaviour,Force,"{'latitude': '51.506553', 'street': {'id': 1682080, 'name': 'On or near Shopping Area'}, 'longitude': '-0.104775'}",,,,125224774,,2024-12,London
anti-social-behaviour,Force,"{'latitude': '51.513064', 'street': {'id': 1678198, 'name': 'On or near Shaftesbury Avenue'}, 'longitude': '-0.129438'}",,,,125224862,,2024-12,London
anti-social-behaviour,Force,"{'latitude': '51.507097', 'street': {'id': 1677926, 'name': 'On or near Parking Area'}, 'longitude': '-0.130864'}",,,,125224904,,2024-12,London
anti-social-behaviour,Force,"{'latitude': '51.516295', 'street': {'id': 1678131, 'name': 'On or near Conference/exhibition Centre'}, 'longitude': '-0.129487'}",,,,125224418,,2024-12,London
anti-social-behaviour,Force,"{'latitude': '51.510623', 'street': {'id': 1678627, 'name': ""On or near St Martin's Lane""}, 'longitude': '-0.126987'}",,,,125224984,,2024-12,London
anti-social-behaviour,Force,"{'latitude': '51.513724', 'street': {'id': 1490731, 'name': 'On or near Fleet Street'}, 'longitude': '-0.111756'}",,,,125225060,,2024-12,London
anti-social-behaviour,Force,"{'latitude': '51.503496', 'street': {'id': 1681772, 'name': 'On or near Hatfields'}, 'longitude': '-0.106473'}",,,,125224974,,2024-12,London
anti-social-behaviour,Force,"{'latitude': '51.513052', 'street': {'id': 1677758, 'name': 'On or near Bourchier Street'}, 'longitude': '-0.132681'}",,,,125224728,,2024-12,London
anti-social-behaviour,Force,"{'latitude': '51.511312', 'street': {'id': 1677127, 'name': 'On or near Lower James Street'}, 'longitude': '-0.136326'}",,,,125225672,,2024-12,London
anti-social-behaviour,Force,"{'latitude': '51.519092', 'street': {'id': 1679240, 'name': 'On or near Bloomsbury Square'}, 'longitude': '-0.122330'}",,,,125225761,,2024-12,London
anti-social-behaviour,Force,"{'latitude': '51.504176', 'street': {'id': 1675117, 'name': 'On or near Hamilton Mews'}, 'longitude': '-0.149643'}",,,,125225851,,2024-12,London
anti-social-behaviour,Force,"{'latitude': '51.517287', 'street': {'id': 1678024, 'name': 'On or near Parking Area'}, 'longitude': '-0.130403'}",,,,125225505,,2024-12,London
anti-social-behaviour,Force,"{'latitude': '51.511312', 'street': {'id': 1677127, 'name': 'On or near Lower James Street'}, 'longitude': '-0.136326'}",,,,125218502,,2024-12,London
anti-social-behaviour,Force,"{'latitude': '51.506270', 'street': {'id': 1676932, 'name': 'On or near Pall Mall Place'}, 'longitude': '-0.137627'}",,,,125218754,,2024-12,London
anti-social-behaviour,Force,"{'latitude': '51.496440', 'street': {'id': 1677223, 'name': 'On or near Spencer Place'}, 'longitude': '-0.135867'}",,,,125223427,,2024-12,London
anti-social-behaviour,Force,"{'latitude': '51.514536', 'street': {'id': 1676666, 'name': 'On or near Nightclub'}, 'longitude': '-0.140043'}",,,,125225783,,2024-12,London
anti-social-behaviour,Force,"{'latitude': '51.513575', 'street': {'id': 1676335, 'name': 'On or near Pollen Street'}, 'longitude': '-0.142373'}",,,,125225796,,2024-12,London
anti-social-behaviour,Force,"{'latitude': '51.505895', 'street': {'id': 1677614, 'name': 'On or near Carlton Gardens'}, 'longitude': '-0.133319'}",,,,125211714,,2024-12,London
anti-social-behaviour,Force,"{'latitude': '51.513052', 'street': {'id': 1677758, 'name': 'On or near Bourchier Street'}, 'longitude': '-0.132681'}",,,,125221479,,2024-12,London
anti-social-behaviour,Force,"{'latitude': '51.514971', 'street': {'id': 1677609, 'name': 'On or near Carlisle Street'}, 'longitude': '-0.133438'}",,,,125221483,,2024-12,London
anti-social-behaviour,Force,"{'latitude': '51.513205', 'street': {'id': 1678985, 'name': 'On or near Long Acre'}, 'longitude': '-0.124229'}",,,,125221485,,2024-12,London
anti-social-behaviour,Force,"{'latitude': '51.512136', 'street': {'id': 1675419, 'name': 'On or near Davies Street'}, 'longitude': '-0.148081'}",,,,125221568,,2024-12,London
anti-social-behaviour,Force,"{'latitude': '51.496508', 'street': {'id': 1676664, 'name': 'On or near Ambrosden Avenue'}, 'longitude': '-0.139610'}",,,,125222444,,2024-12,London
anti-social-behaviour,Force,"{'latitude': '51.515939', 'street': {'id': 1677739, 'name': 'On or near Soho Street'}, 'longitude': '-0.132693'}",,,,125222180,,2024-12,London
anti-social-behaviour,Force,"{'latitude': '51.510295', 'street': {'id': 1677826, 'name': 'On or near Coventry Street'}, 'longitude': '-0.132318'}",,,,125222182,,2024-12,London
anti-social-behaviour,Force,"{'latitude': '51.504066', 'street': {'id': 1681189, 'name': 'On or near Theatre/concert Hall'}, 'longitude': '-0.110037'}",,,,125222312,,2024-12,London
anti-social-behaviour,Force,"{'latitude': '51.512133', 'street': {'id': 1679789, 'name': 'On or near Montreal Place'}, 'longitude': '-0.117918'}",,,,125222116,,2024-12,London
anti-social-behaviour,Force,"{'latitude': '51.497534', 'street': {'id': 1677829, 'name': 'On or near Old Pye Street'}, 'longitude': '-0.132307'}",,,,125222127,,2024-12,London
anti-social-behaviour,Force,"{'latitude': '51.502823', 'street': {'id': 1679478, 'name': 'On or near Theme/adventure Park'}, 'longitude': '-0.119257'}",,,,125223175,,2024-12,London
anti-social-behaviour,Force,"{'latitude': '51.512449', 'street': {'id': 1680063, 'name': 'On or near Surrey Street'}, 'longitude': '-0.115772'}",,,,125222454,,2024-12,London
anti-social-behaviour,Force,"{'latitude': '51.516001', 'street': {'id': 1679229, 'name': 'On or near Macklin Street'}, 'longitude': '-0.122471'}",,,,125222761,,2024-12,London
anti-social-behaviour,Force,"{'latitude': '51.515684', 'street': {'id': 1677259, 'name': 'On or near Nightclub'}, 'longitude': '-0.135874'}",,,,125222494,,2024-12,London
anti-social-behaviour,Force,"{'latitude': '51.509491', 'street': {'id': 1678539, 'name': 'On or near William Iv Street'}, 'longitude': '-0.125924'}",,,,125223498,,2024-12,London
anti-social-behaviour,Force,"{'latitude': '51.504176', 'street': {'id': 1675117, 'name': 'On or near Hamilton Mews'}, 'longitude': '-0.149643'}",,,,125223347,,2024-12,London
anti-social-behaviour,Force,"{'latitude': '51.497934', 'street': {'id': 1678630, 'name': 'On or near Parking Area'}, 'longitude': '-0.126369'}",,,,125222968,,2024-12,London
anti-social-behaviour,Force,"{'latitude': '51.498175', 'street': {'id': 1676627, 'name': 'On or near Palace Street'}, 'longitude': '-0.140363'}",,,,125223044,,2024-12,London
anti-social-behaviour,Force,"{'latitude': '51.519092', 'street': {'id': 1679240, 'name': 'On or near Bloomsbury Square'}, 'longitude': '-0.122330'}",,,,125223478,,2024-12,London
anti-social-behaviour,Force,"{'latitude': '51.510953', 'street': {'id': 1677692, 'name': 'On or near Nightclub'}, 'longitude': '-0.133012'}",,,,125223582,,2024-12,London
anti-social-behaviour,Force,"{'latitude': '51.507097', 'street': {'id': 1677926, 'name': 'On or near Parking Area'}, 'longitude': '-0.130864'}",,,,125223660,,2024-12,London
anti-social-behaviour,Force,"{'latitude': '51.493937', 'street': {'id': 1678154, 'name': 'On or near Page Street'}, 'longitude': '-0.129472'}",,,,125223679,,2024-12,London
anti-social-behaviour,Force,"{'latitude': '51.501162', 'street': {'id': 1680084, 'name': 'On or near Addington Street'}, 'longitude': '-0.116252'}",,,,125222842,,2024-12,London
anti-social-behaviour,Force,"{'latitude': '51.497579', 'street': {'id': 1678121, 'name': ""On or near St Ann's Street""}, 'longitude': '-0.130590'}",,,,125222845,,2024-12,London
anti-social-behaviour,Force,"{'latitude': '51.512300', 'street': {'id': 1678389, 'name': 'On or near Theatre/concert Hall'}, 'longitude': '-0.128388'}",,,,125222848,,2024-12,London
anti-social-behaviour,Force,"{'latitude': '51.506889', 'street': {'id': 1675379, 'name': 'On or near Chesterfield Gardens'}, 'longitude': '-0.149476'}",,,,125223551,,2024-12,London
anti-social-behaviour,Force,"{'latitude': '51.510389', 'street': {'id': 1679043, 'name': 'On or near Bedford Street'}, 'longitude': '-0.124157'}",,,,125224247,,2024-12,London
anti-social-behaviour,Force,"{'latitude': '51.507725', 'street': {'id': 1678750, 'name': 'On or near Corner House Street'}, 'longitude': '-0.125708'}",,,,125223947,,2024-12,London
anti-social-behaviour,Force,"{'latitude': '51.510623', 'street': {'id': 1678627, 'name': ""On or near St Martin's Lane""}, 'longitude': '-0.126987'}",,,,125224559,,2024-12,London
anti-social-behaviour,Force,"{'latitude': '51.512544', 'street': {'id': 1675804, 'name': 'On or near Avery Row'}, 'longitude': '-0.145989'}",,,,125224097,,2024-12,London
anti-social-behaviour,Force,"{'latitude': '51.512095', 'street': {'id': 1679550, 'name': 'On or near Tavistock Street'}, 'longitude': '-0.120571'}",,,,125224472,,2024-12,London
anti-social-behaviour,Force,"{'latitude': '51.507766', 'street': {'id': 1676493, 'name': 'On or near Nightclub'}, 'longitude': '-0.141284'}",,,,125224818,,2024-12,London
anti-social-behaviour,Force,"{'latitude': '51.515939', 'street': {'id': 1677739, 'name': 'On or near Soho Street'}, 'longitude': '-0.132693'}",,,,125224179,,2024-12,London
anti-social-behaviour,Force,"{'latitude': '51.515869', 'street': {'id': 1679355, 'name': 'On or near Parker Street'}, 'longitude': '-0.121554'}",,,,125224745,,2024-12,London
anti-social-behaviour,Force,"{'latitude': '51.498553', 'street': {'id': 1677378, 'name': 'On or near Caxton Street'}, 'longitude': '-0.135291'}",,,,125224812,,2024-12,London
anti-social-behaviour,Force,"{'latitude': '51.511783', 'street': {'id': 1678199, 'name': 'On or near Nightclub'}, 'longitude': '-0.129778'}",,,,125224892,,2024-12,London
anti-social-behaviour,Force,"{'latitude': '51.504066', 'street': {'id': 1681189, 'name': 'On or near Theatre/concert Hall'}, 'longitude': '-0.110037'}",,,,125224897,,2024-12,London
anti-social-behaviour,Force,"{'latitude': '51.495415', 'street': {'id': 1678026, 'name': 'On or near Monck Street'}, 'longitude': '-0.130794'}",,,,125224934,,2024-12,London
anti-social-behaviour,Force,"{'latitude': '51.513848', 'street': {'id': 1678270, 'name': 'On or near Old Compton Street'}, 'longitude': '-0.129593'}",,,,125225031,,2024-12,London
anti-social-behaviour,Force,"{'latitude': '51.510641', 'street': {'id': 1676033, 'name': 'On or near Bruton Street'}, 'longitude': '-0.144467'}",,,,125225336,,2024-12,London
anti-social-behaviour,Force,"{'latitude': '51.519092', 'street': {'id': 1679240, 'name': 'On or near Bloomsbury Square'}, 'longitude': '-0.122330'}",,,,125225380,,2024-12,London
anti-social-behaviour,Force,"{'latitude': '51.501941', 'street': {'id': 1680853, 'name': 'On or near Lower Road'}, 'longitude': '-0.112127'}",,,,125224960,,2024-12,London
anti-social-behaviour,Force,"{'latitude': '51.511022', 'street': {'id': 1679585, 'name': 'On or near Strand'}, 'longitude': '-0.119880'}",,,,125225157,,2024-12,London
anti-social-behaviour,Force,"{'latitude': '51.515449', 'street': {'id': 1679081, 'name': 'On or near Drury Lane'}, 'longitude': '-0.123373'}",,,,125225683,,2024-12,London
anti-social-behaviour,Force,"{'latitude': '51.512770', 'street': {'id': 1679877, 'name': 'On or near Kingsway Tunnel'}, 'longitude': '-0.118367'}",,,,125225686,,2024-12,London
anti-social-behaviour,Force,"{'latitude': '51.514903', 'street': {'id': 1680610, 'name': 'On or near Carey Street'}, 'longitude': '-0.113494'}",,,,125225210,,2024-12,London
anti-social-behaviour,Force,"{'latitude': '51.508450', 'street': {'id': 1676091, 'name': 'On or near Nightclub'}, 'longitude': '-0.143266'}",,,,125225734,,2024-12,London
anti-social-behaviour,Force,"{'latitude': '51.516037', 'street': {'id': 1678369, 'name': 'On or near Earnshaw Street'}, 'longitude': '-0.128682'}",,,,125225739,,2024-12,London
anti-social-behaviour,Force,"{'latitude': '51.495183', 'street': {'id': 1676610, 'name': 'On or near Morpeth Terrace'}, 'longitude': '-0.139952'}",,,,125225824,,2024-12,London
anti-social-behaviour,Force,"{'latitude': '51.515487', 'street': {'id': 1679294, 'name': 'On or near Parker Mews'}, 'longitude': '-0.122420'}",,,,125225826,,2024-12,London
anti-social-behaviour,Force,"{'latitude': '51.509097', 'street': {'id': 1675613, 'name': 'On or near Nightclub'}, 'longitude': '-0.146936'}",,,,125225467,,2024-12,London
anti-social-behaviour,Force,"{'latitude': '51.498553', 'street': {'id': 1677378, 'name': 'On or near Caxton Street'}, 'longitude': '-0.135291'}",,,,125225201,,2024-12,London
anti-social-behaviour,Force,"{'latitude': '51.510345', 'street': {'id': 1679211, 'name': 'On or near Theatre/concert Hall'}, 'longitude': '-0.122502'}",,,,125225217,,2024-12,London
anti-social-behaviour,Force,"{'latitude': '51.493937', 'street': {'id': 1678154, 'name': 'On or near Page Street'}, 'longitude': '-0.129472'}",,,,125223978,,2024-12,London
anti-social-behaviour,Force,"{'latitude': '51.508202', 'street': {'id': 1677075, 'name': 'On or near Ormond Yard'}, 'longitude': '-0.136410'}",,,,125219772,,2024-12,London
anti-social-behaviour,Force,"{'latitude': '51.511111', 'street': {'id': 1679082, 'name': 'On or near Henrietta Street'}, 'longitude': '-0.123710'}",,,,125218261,,2024-12,London
anti-social-behaviour,Force,"{'latitude': '51.508087', 'street': {'id': 1678961, 'name': 'On or near Nightclub'}, 'longitude': '-0.124122'}",,,,125216339,,2024-12,London
anti-social-behaviour,Force,"{'latitude': '51.515598', 'street': {'id': 1678536, 'name': 'On or near St Giles High Street'}, 'longitude': '-0.127633'}",,,,125215370,,2024-12,London
anti-social-behaviour,Force,"{'latitude': '51.517858', 'street': {'id': 1678162, 'name': 'On or near Adeline Place'}, 'longitude': '-0.130120'}",,,,125218127,,2024-12,London
anti-social-behaviour,Force,"{'latitude': '51.511623', 'street': {'id': 1678738, 'name': 'On or near Rose Street'}, 'longitude': '-0.125951'}",,,,125217163,,2024-12,London
anti-social-behaviour,Force,"{'latitude': '51.501162', 'street': {'id': 1680084, 'name': 'On or near Addington Street'}, 'longitude': '-0.116252'}",,,,125216712,,2024-12,London
anti-social-behaviour,Force,"{'latitude': '51.494818', 'street': {'id': 1679973, 'name': 'On or near Pratt Walk'}, 'longitude': '-0.117089'}",,,,125216398,,2024-12,London
anti-social-behaviour,Force,"{'latitude': '51.515939', 'street': {'id': 1677739, 'name': 'On or near Soho Street'}, 'longitude': '-0.132693'}",,,,125216401,,2024-12,London
anti-social-behaviour,Force,"{'latitude': '51.514195', 'street': {'id': 1675879, 'name': 'On or near Dering Street'}, 'longitude': '-0.145735'}",,,,125216402,,2024-12,London
anti-social-behaviour,Force,"{'latitude': '51.514012', 'street': {'id': 1677997, 'name': 'On or near Nightclub'}, 'longitude': '-0.131078'}",,,,125216249,,2024-12,London
anti-social-behaviour,Force,"{'latitude': '51.513734', 'street': {'id': 1677787, 'name': 'On or near Dean Street'}, 'longitude': '-0.132595'}",,,,125216198,,2024-12,London
anti-social-behaviour,Force,"{'latitude': '51.513052', 'street': {'id': 1677758, 'name': 'On or near Bourchier Street'}, 'longitude': '-0.132681'}",,,,125216276,,2024-12,London
anti-social-behaviour,Force,"{'latitude': '51.514684', 'street': {'id': 1676465, 'name': 'On or near Argyll Street'}, 'longitude': '-0.140844'}",,,,125215942,,2024-12,London
anti-social-behaviour,Force,"{'latitude': '51.506344', 'street': {'id': 1681145, 'name': 'On or near Coin Street'}, 'longitude': '-0.110216'}",,,,125215095,,2024-12,London
anti-social-behaviour,Force,"{'latitude': '51.512744', 'street': {'id': 1678474, 'name': 'On or near Litchfield Street'}, 'longitude': '-0.127995'}",,,,125225867,,2024-12,London
anti-social-behaviour,Force,"{'latitude': '51.513848', 'street': {'id': 1678270, 'name': 'On or near Old Compton Street'}, 'longitude': '-0.129593'}",,,,125214604,,2024-12,London
anti-social-behaviour,Force,"{'latitude': '51.514536', 'street': {'id': 1676666, 'name': 'On or near Nightclub'}, 'longitude': '-0.140043'}",,,,125214608,,2024-12,London
anti-social-behaviour,Force,"{'latitude': '51.514832', 'street': {'id': 1678939, 'name': 'On or near Betterton Street'}, 'longitude': '-0.124162'}",,,,125218409,,2024-12,London
anti-social-behaviour,Force,"{'latitude': '51.513052', 'street': {'id': 1677758, 'name': 'On or near Bourchier Street'}, 'longitude': '-0.132681'}",,,,125214340,,2024-12,London
anti-social-behaviour,Force,"{'latitude': '51.506610', 'street': {'id': 1677297, 'name': ""On or near St James's Square""}, 'longitude': '-0.135250'}",,,,125215969,,2024-12,London
anti-social-behaviour,Force,"{'latitude': '51.509396', 'street': {'id': 1678091, 'name': 'On or near Orange Street'}, 'longitude': '-0.130626'}",,,,125223415,,2024-12,London
anti-social-behaviour,Force,"{'latitude': '51.502888', 'street': {'id': 1679979, 'name': 'On or near Chicheley Street'}, 'longitude': '-0.117319'}",,,,125214400,,2024-12,London
anti-social-behaviour,Force,"{'latitude': '51.517742', 'street': {'id': 1678770, 'name': 'On or near Little Russell Street'}, 'longitude': '-0.125614'}",,,,125214057,,2024-12,London
anti-social-behaviour,Force,"{'latitude': '51.511703', 'street': {'id': 1678351, 'name': 'On or near Little Newport Street'}, 'longitude': '-0.128701'}",,,,125213975,,2024-12,London
anti-social-behaviour,Force,"{'latitude': '51.512449', 'street': {'id': 1680063, 'name': 'On or near Surrey Street'}, 'longitude': '-0.115772'}",,,,125213743,,2024-12,London
anti-social-behaviour,Force,"{'latitude': '51.505745', 'street': {'id': 1676575, 'name': ""On or near St James's Place""}, 'longitude': '-0.139709'}",,,,125213639,,2024-12,London
anti-social-behaviour,Force,"{'latitude': '51.496508', 'street': {'id': 1676664, 'name': 'On or near Ambrosden Avenue'}, 'longitude': '-0.139610'}",,,,125213778,,2024-12,London
anti-social-behaviour,Force,"{'latitude': '51.516178', 'street': {'id': 1677833, 'name': 'On or near Further/higher Educational Building'}, 'longitude': '-0.131904'}",,,,125218654,,2024-12,London
anti-social-behaviour,Force,"{'latitude': '51.496941', 'street': {'id': 1677903, 'name': 'On or near Conference/exhibition Centre'}, 'longitude': '-0.130617'}",,,,125213773,,2024-12,London
anti-social-behaviour,Force,"{'latitude': '51.510389', 'street': {'id': 1679043, 'name': 'On or near Bedford Street'}, 'longitude': '-0.124157'}",,,,125218711,,2024-12,London
anti-social-behaviour,Force,"{'latitude': '51.517858', 'street': {'id': 1678162, 'name': 'On or near Adeline Place'}, 'longitude': '-0.130120'}",,,,125218962,,2024-12,London
anti-social-behaviour,Force,"{'latitude': '51.494818', 'street': {'id': 1679973, 'name': 'On or near Pratt Walk'}, 'longitude': '-0.117089'}",,,,125219488,,2024-12,London
anti-social-behaviour,Force,"{'latitude': '51.503196', 'street': {'id': 1678183, 'name': 'On or near Downing Street'}, 'longitude': '-0.127032'}",,,,125213096,,2024-12,London
anti-social-behaviour,Force,"{'latitude': '51.507725', 'street': {'id': 1678750, 'name': 'On or near Corner House Street'}, 'longitude': '-0.125708'}",,,,125219889,,2024-12,London
anti-social-behaviour,Force,"{'latitude': '51.495936', 'street': {'id': 1676456, 'name': 'On or near Carlisle Place'}, 'longitude': '-0.141491'}",,,,125212187,,2024-12,London
anti-social-behaviour,Force,"{'latitude': '51.503276', 'street': {'id': 1681759, 'name': 'On or near Theatre/concert Hall'}, 'longitude': '-0.107317'}",,,,125212212,,2024-12,London
anti-social-behaviour,Force,"{'latitude': '51.494818', 'street': {'id': 1679973, 'name': 'On or near Pratt Walk'}, 'longitude': '-0.117089'}",,,,125220144,,2024-12,London
anti-social-behaviour,Force,"{'latitude': '51.511783', 'street': {'id': 1678199, 'name': 'On or near Nightclub'}, 'longitude': '-0.129778'}",,,,125212049,,2024-12,London
anti-social-behaviour,Force,"{'latitude': '51.515004', 'street': {'id': 1678816, 'name': 'On or near B401'}, 'longitude': '-0.125352'}",,,,125220431,,2024-12,London
anti-social-behaviour,Force,"{'latitude': '51.516568', 'street': {'id': 1679291, 'name': 'On or near Newton Street'}, 'longitude': '-0.121381'}",,,,125211411,,2024-12,London
anti-social-behaviour,Force,"{'latitude': '51.512059', 'street': {'id': 1679743, 'name': 'On or near A301'}, 'longitude': '-0.118929'}",,,,125220428,,2024-12,London
anti-social-behaviour,Force,"{'latitude': '51.505921', 'street': {'id': 1681295, 'name': 'On or near Aquinas Street'}, 'longitude': '-0.109067'}",,,,125210979,,2024-12,London
anti-social-behaviour,Force,"{'latitude': '51.495415', 'street': {'id': 1678026, 'name': 'On or near Monck Street'}, 'longitude': '-0.130794'}",,,,125220850,,2024-12,London
anti-social-behaviour,Force,"{'latitude': '51.496508', 'street': {'id': 1676664, 'name': 'On or near Ambrosden Avenue'}, 'longitude': '-0.139610'}",,,,125210936,,2024-12,London
anti-social-behaviour,Force,"{'latitude': '51.507286', 'street': {'id': 1678357, 'name': 'On or near Parking Area'}, 'longitude': '-0.128903'}",,,,125210596,,2024-12,London
anti-social-behaviour,Force,"{'latitude': '51.510379', 'street': {'id': 1676452, 'name': 'On or near Cork Street'}, 'longitude': '-0.141552'}",,,,125221954,,2024-12,London
anti-social-behaviour,Force,"{'latitude': '51.507097', 'street': {'id': 1677926, 'name': 'On or near Parking Area'}, 'longitude': '-0.130864'}",,,,125210522,,2024-12,London
anti-social-behaviour,Force,"{'latitude': '51.513601', 'street': {'id': 1677939, 'name': 'On or near Frith Street'}, 'longitude': '-0.131534'}",,,,125210707,,2024-12,London
anti-social-behaviour,Force,"{'latitude': '51.517319', 'street': {'id': 1678533, 'name': 'On or near Streatham Street'}, 'longitude': '-0.127274'}",,,,125222344,,2024-12,London
anti-social-behaviour,Force,"{'latitude': '51.506342', 'street': {'id': 1678767, 'name': 'On or near Great Scotland Yard'}, 'longitude': '-0.125794'}",,,,125224093,,2024-12,London
anti-social-behaviour,Force,"{'latitude': '51.511054', 'street': {'id': 1677302, 'name': 'On or near Theatre/concert Hall'}, 'longitude': '-0.135400'}",,,,125223848,,2024-12,London
anti-social-behaviour,Force,"{'latitude': '51.515004', 'street': {'id': 1678816, 'name': 'On or near B401'}, 'longitude': '-0.125352'}",,,,125210699,,2024-12,London
anti-social-behaviour,Force,"{'latitude': '51.513310', 'street': {'id': 1679459, 'name': 'On or near Theatre/concert Hall'}, 'longitude': '-0.120741'}",,,,125210140,,2024-12,London
anti-social-behaviour,Force,"{'latitude': '51.518106', 'street': {'id': 1680014, 'name': 'On or near Race Track'}, 'longitude': '-0.116951'}",,,,125210413,,2024-12,London
anti-social-behaviour,Force,"{'latitude': '51.496466', 'street': {'id': 1676405, 'name': 'On or near Shopping Area'}, 'longitude': '-0.141499'}",,,,125224403,,2024-12,London
anti-social-behaviour,Force,"{'latitude': '51.512744', 'street': {'id': 1678474, 'name': 'On or near Litchfield Street'}, 'longitude': '-0.127995'}",,,,125224186,,2024-12,London
anti-social-behaviour,Force,"{'latitude': '51.511574', 'street': {'id': 1678643, 'name': 'On or near Garrick Street'}, 'longitude': '-0.126271'}",,,,125210229,,2024-12,London
anti-social-behaviour,Force,"{'latitude': '51.509097', 'street': {'id': 1675613, 'name': 'On or near Nightclub'}, 'longitude': '-0.146936'}",,,,125224210,,2024-12,London
anti-social-behaviour,Force,"{'latitude': '51.518043', 'street': {'id': 1679235, 'name': 'On or near Further/higher Educational Building'}, 'longitude': '-0.122651'}",,,,125210018,,2024-12,London
anti-social-behaviour,Force,"{'latitude': '51.510952', 'street': {'id': 1677471, 'name': 'On or near Great Windmill Street'}, 'longitude': '-0.134064'}",,,,125224693,,2024-12,London
anti-social-behaviour,Force,"{'latitude': '51.512300', 'street': {'id': 1678389, 'name': 'On or near Theatre/concert Hall'}, 'longitude': '-0.128388'}",,,,125210094,,2024-12,London
anti-social-behaviour,Force,"{'latitude': '51.505745', 'street': {'id': 1676575, 'name': ""On or near St James's Place""}, 'longitude': '-0.139709'}",,,,125210101,,2024-12,London
anti-social-behaviour,Force,"{'latitude': '51.515004', 'street': {'id': 1678816, 'name': 'On or near B401'}, 'longitude': '-0.125352'}",,,,125210540,,2024-12,London
anti-social-behaviour,Force,"{'latitude': '51.507415', 'street': {'id': 1681921, 'name': 'On or near Supermarket'}, 'longitude': '-0.105835'}",,,,125225019,,2024-12,London
anti-social-behaviour,Force,"{'latitude': '51.506736', 'street': {'id': 1678642, 'name': ""On or near Craig's Court""}, 'longitude': '-0.126800'}",,,,125210597,,2024-12,London
anti-social-behaviour,Force,"{'latitude': '51.508087', 'street': {'id': 1678961, 'name': 'On or near Nightclub'}, 'longitude': '-0.124122'}",,,,125225831,,2024-12,London
anti-social-behaviour,Force,"{'latitude': '51.506600', 'street': {'id': 1677427, 'name': 'On or near Pall Mall'}, 'longitude': '-0.134054'}",,,,125210859,,2024-12,London
anti-social-behaviour,Force,"{'latitude': '51.510468', 'street': {'id': 1678029, 'name': 'On or near Leicester Square'}, 'longitude': '-0.130769'}",,,,125210863,,2024-12,London
anti-social-behaviour,Force,"{'latitude': '51.514369', 'street': {'id': 1679259, 'name': 'On or near Drury Lane'}, 'longitude': '-0.121645'}",,,,125210364,,2024-12,London
anti-social-behaviour,Force,"{'latitude': '51.509929', 'street': {'id': 1676830, 'name': 'On or near Sackville Street'}, 'longitude': '-0.138703'}",,,,125224845,,2024-12,London
anti-social-behaviour,Force,"{'latitude': '51.512449', 'street': {'id': 1680063, 'name': 'On or near Surrey Street'}, 'longitude': '-0.115772'}",,,,125210660,,2024-12,London
anti-social-behaviour,Force,"{'latitude': '51.514684', 'street': {'id': 1676465, 'name': 'On or near Argyll Street'}, 'longitude': '-0.140844'}",,,,125225849,,2024-12,London
anti-social-behaviour,Force,"{'latitude': '51.515088', 'street': {'id': 1676649, 'name': 'On or near Hills Place'}, 'longitude': '-0.140222'}",,,,125211514,,2024-12,London
anti-social-behaviour,Force,"{'latitude': '51.515753', 'street': {'id': 1676083, 'name': ""On or near John Prince's Street""}, 'longitude': '-0.143092'}",,,,125225050,,2024-12,London
anti-social-behaviour,Force,"{'latitude': '51.515939', 'street': {'id': 1677739, 'name': 'On or near Soho Street'}, 'longitude': '-0.132693'}",,,,125225883,,2024-12,London
anti-social-behaviour,Force,"{'latitude': '51.515430', 'street': {'id': 1679223, 'name': 'On or near Theatre/concert Hall'}, 'longitude': '-0.122797'}",,,,125225184,,2024-12,London
anti-social-behaviour,Force,"{'latitude': '51.515753', 'street': {'id': 1676083, 'name': ""On or near John Prince's Street""}, 'longitude': '-0.143092'}",,,,125214953,,2024-12,London
anti-social-behaviour,Force,"{'latitude': '51.502428', 'street': {'id': 1681119, 'name': 'On or near Pear Place'}, 'longitude': '-0.110508'}",,,,125214441,,2024-12,London
anti-social-behaviour,Force,"{'latitude': '51.512863', 'street': {'id': 1679427, 'name': 'On or near Russell Street'}, 'longitude': '-0.120842'}",,,,125211582,,2024-12,London
anti-social-behaviour,Force,"{'latitude': '51.503496', 'street': {'id': 1681772, 'name': 'On or near Hatfields'}, 'longitude': '-0.106473'}",,,,125211288,,2024-12,London
anti-social-behaviour,Force,"{'latitude': '51.498553', 'street': {'id': 1677378, 'name': 'On or near Caxton Street'}, 'longitude': '-0.135291'}",,,,125210728,,2024-12,London
anti-social-behaviour,Force,"{'latitude': '51.511022', 'street': {'id': 1679585, 'name': 'On or near Strand'}, 'longitude': '-0.119880'}",,,,125210750,,2024-12,London
anti-social-behaviour,Force,"{'latitude': '51.517727', 'street': {'id': 1678383, 'name': 'On or near Further/higher Educational Building'}, 'longitude': '-0.128612'}",,,,125210773,,2024-12,London
anti-social-behaviour,Force,"{'latitude': '51.511137', 'street': {'id': 1678783, 'name': 'On or near New Row'}, 'longitude': '-0.125914'}",,,,125210801,,2024-12,London
anti-social-behaviour,Force,"{'latitude': '51.517696', 'street': {'id': 1679117, 'name': 'On or near Barter Street'}, 'longitude': '-0.122791'}",,,,125211605,,2024-12,London
anti-social-behaviour,Force,"{'latitude': '51.515869', 'street': {'id': 1679355, 'name': 'On or near Parker Street'}, 'longitude': '-0.121554'}",,,,125211371,,2024-12,London
anti-social-behaviour,Force,"{'latitude': '51.517858', 'street': {'id': 1678162, 'name': 'On or near Adeline Place'}, 'longitude': '-0.130120'}",,,,125212008,,2024-12,London
anti-social-behaviour,Force,"{'latitude': '51.498553', 'street': {'id': 1677378, 'name': 'On or near Caxton Street'}, 'longitude': '-0.135291'}",,,,125211804,,2024-12,London
anti-social-behaviour,Force,"{'latitude': '51.514211', 'street': {'id': 1678632, 'name': 'On or near Monmouth Street'}, 'longitude': '-0.126984'}",,,,125214113,,2024-12,London
anti-social-behaviour,Force,"{'latitude': '51.508450', 'street': {'id': 1676091, 'name': 'On or near Nightclub'}, 'longitude': '-0.143266'}",,,,125211848,,2024-12,London
anti-social-behaviour,Force,"{'latitude': '51.513019', 'street': {'id': 1678021, 'name': 'On or near Romilly Street'}, 'longitude': '-0.130592'}",,,,125212885,,2024-12,London
anti-social-behaviour,Force,"{'latitude': '51.516178', 'street': {'id': 1677833, 'name': 'On or near Further/higher Educational Building'}, 'longitude': '-0.131904'}",,,,125211891,,2024-12,London
anti-social-behaviour,Force,"{'latitude': '51.513205', 'street': {'id': 1678985, 'name': 'On or near Long Acre'}, 'longitude': '-0.124229'}",,,,125211725,,2024-12,London
anti-social-behaviour,Force,"{'latitude': '51.494818', 'street': {'id': 1679973, 'name': 'On or near Pratt Walk'}, 'longitude': '-0.117089'}",,,,125211444,,2024-12,London
anti-social-behaviour,Force,"{'latitude': '51.498175', 'street': {'id': 1676627, 'name': 'On or near Palace Street'}, 'longitude': '-0.140363'}",,,,125211929,,2024-12,London
anti-social-behaviour,Force,"{'latitude': '51.498284', 'street': {'id': 1681059, 'name': 'On or near A302'}, 'longitude': '-0.110074'}",,,,125212563,,2024-12,London
anti-social-behaviour,Force,"{'latitude': '51.513724', 'street': {'id': 1490731, 'name': 'On or near Fleet Street'}, 'longitude': '-0.111756'}",,,,125212579,,2024-12,London
anti-social-behaviour,Force,"{'latitude': '51.501269', 'street': {'id': 1681675, 'name': 'On or near Gray Street'}, 'longitude': '-0.107228'}",,,,125212190,,2024-12,London
anti-social-behaviour,Force,"{'latitude': '51.516178', 'street': {'id': 1677833, 'name': 'On or near Further/higher Educational Building'}, 'longitude': '-0.131904'}",,,,125212204,,2024-12,London
anti-social-behaviour,Force,"{'latitude': '51.501409', 'street': {'id': 1680983, 'name': 'On or near Tanswell Street'}, 'longitude': '-0.111443'}",,,,125212234,,2024-12,London
anti-social-behaviour,Force,"{'latitude': '51.496466', 'street': {'id': 1676405, 'name': 'On or near Shopping Area'}, 'longitude': '-0.141499'}",,,,125212503,,2024-12,London
anti-social-behaviour,Force,"{'latitude': '51.514369', 'street': {'id': 1679259, 'name': 'On or near Drury Lane'}, 'longitude': '-0.121645'}",,,,125212552,,2024-12,London
anti-social-behaviour,Force,"{'latitude': '51.510295', 'street': {'id': 1677826, 'name': 'On or near Coventry Street'}, 'longitude': '-0.132318'}",,,,125212955,,2024-12,London
anti-social-behaviour,Force,"{'latitude': '51.509786', 'street': {'id': 1678937, 'name': 'On or near Police Station'}, 'longitude': '-0.124658'}",,,,125212957,,2024-12,London
anti-social-behaviour,Force,"{'latitude': '51.512059', 'street': {'id': 1679743, 'name': 'On or near A301'}, 'longitude': '-0.118929'}",,,,125213052,,2024-12,London
anti-social-behaviour,Force,"{'latitude': '51.509491', 'street': {'id': 1678539, 'name': 'On or near William Iv Street'}, 'longitude': '-0.125924'}",,,,125213395,,2024-12,London
anti-social-behaviour,Force,"{'latitude': '51.514684', 'street': {'id': 1676465, 'name': 'On or near Argyll Street'}, 'longitude': '-0.140844'}",,,,125213417,,2024-12,London
anti-social-behaviour,Force,"{'latitude': '51.515088', 'street': {'id': 1676649, 'name': 'On or near Hills Place'}, 'longitude': '-0.140222'}",,,,125213446,,2024-12,London
anti-social-behaviour,Force,"{'latitude': '51.512300', 'street': {'id': 1678389, 'name': 'On or near Theatre/concert Hall'}, 'longitude': '-0.128388'}",,,,125212612,,2024-12,London
anti-social-behaviour,Force,"{'latitude': '51.513057', 'street': {'id': 1675886, 'name': 'On or near Shopping Area'}, 'longitude': '-0.144844'}",,,,125212619,,2024-12,London
anti-social-behaviour,Force,"{'latitude': '51.516351', 'street': {'id': 1679201, 'name': 'On or near Stukeley Street'}, 'longitude': '-0.122976'}",,,,125212626,,2024-12,London
anti-social-behaviour,Force,"{'latitude': '51.500978', 'street': {'id': 1678704, 'name': 'On or near Bridge Street'}, 'longitude': '-0.125524'}",,,,125003526,,2024-12,London
anti-social-behaviour,Force,"{'latitude': '51.513848', 'street': {'id': 1678270, 'name': 'On or near Old Compton Street'}, 'longitude': '-0.129593'}",,,,125211713,,2024-12,London
anti-social-behaviour,Force,"{'latitude': '51.498553', 'street': {'id': 1677378, 'name': 'On or near Caxton Street'}, 'longitude': '-0.135291'}",,,,125212867,,2024-12,London
anti-social-behaviour,Force,"{'latitude': '51.513601', 'street': {'id': 1677939, 'name': 'On or near Frith Street'}, 'longitude': '-0.131534'}",,,,125212876,,2024-12,London
anti-social-behaviour,Force,"{'latitude': '51.513827', 'street': {'id': 1676355, 'name': 'On or near Hanover Street'}, 'longitude': '-0.142363'}",,,,125213103,,2024-12,London
anti-social-behaviour,Force,"{'latitude': '51.498553', 'street': {'id': 1677378, 'name': 'On or near Caxton Street'}, 'longitude': '-0.135291'}",,,,125212880,,2024-12,London
anti-social-behaviour,Force,"{'latitude': '51.513370', 'street': {'id': 1676871, 'name': 'On or near Newburgh Street'}, 'longitude': '-0.138519'}",,,,125213553,,2024-12,London
anti-social-behaviour,Force,"{'latitude': '51.513046', 'street': {'id': 1679162, 'name': 'On or near Theatre/concert Hall'}, 'longitude': '-0.122679'}",,,,125213554,,2024-12,London
anti-social-behaviour,Force,"{'latitude': '51.495936', 'street': {'id': 1676456, 'name': 'On or near Carlisle Place'}, 'longitude': '-0.141491'}",,,,125213188,,2024-12,London
anti-social-behaviour,Force,"{'latitude': '51.513019', 'street': {'id': 1678021, 'name': 'On or near Romilly Street'}, 'longitude': '-0.130592'}",,,,125213292,,2024-12,London
anti-social-behaviour,Force,"{'latitude': '51.516341', 'street': {'id': 1679597, 'name': 'On or near Nightclub'}, 'longitude': '-0.120151'}",,,,125213319,,2024-12,London
anti-social-behaviour,Force,"{'latitude': '51.514537', 'street': {'id': 1678431, 'name': 'On or near St Giles Passage'}, 'longitude': '-0.128196'}",,,,125214745,,2024-12,London
anti-social-behaviour,Force,"{'latitude': '51.514408', 'street': {'id': 1678779, 'name': 'On or near Neal Street'}, 'longitude': '-0.125780'}",,,,125214767,,2024-12,London
anti-social-behaviour,Force,"{'latitude': '51.514209', 'street': {'id': 1677099, 'name': 'On or near Parking Area'}, 'longitude': '-0.137000'}",,,,125214125,,2024-12,London
anti-social-behaviour,Force,"{'latitude': '51.515088', 'street': {'id': 1676649, 'name': 'On or near Hills Place'}, 'longitude': '-0.140222'}",,,,125213807,,2024-12,London
anti-social-behaviour,Force,"{'latitude': '51.515753', 'street': {'id': 1676083, 'name': ""On or near John Prince's Street""}, 'longitude': '-0.143092'}",,,,125213810,,2024-12,London
anti-social-behaviour,Force,"{'latitude': '51.511022', 'street': {'id': 1679585, 'name': 'On or near Strand'}, 'longitude': '-0.119880'}",,,,125213816,,2024-12,London
anti-social-behaviour,Force,"{'latitude': '51.511574', 'street': {'id': 1678643, 'name': 'On or near Garrick Street'}, 'longitude': '-0.126271'}",,,,125213827,,2024-12,London
anti-social-behaviour,Force,"{'latitude': '51.519794', 'street': {'id': 1677689, 'name': 'On or near Alfred Place'}, 'longitude': '-0.132535'}",,,,125213831,,2024-12,London
anti-social-behaviour,Force,"{'latitude': '51.509491', 'street': {'id': 1678539, 'name': 'On or near William Iv Street'}, 'longitude': '-0.125924'}",,,,125214330,,2024-12,London
anti-social-behaviour,Force,"{'latitude': '51.500978', 'street': {'id': 1678704, 'name': 'On or near Bridge Street'}, 'longitude': '-0.125524'}",,,,125214336,,2024-12,London
anti-social-behaviour,Force,"{'latitude': '51.506136', 'street': {'id': 1680093, 'name': 'On or near Parking Area'}, 'longitude': '-0.115773'}",,,,125214372,,2024-12,London
anti-social-behaviour,Force,"{'latitude': '51.495591', 'street': {'id': 1677126, 'name': 'On or near Greencoat Row'}, 'longitude': '-0.136794'}",,,,125214385,,2024-12,London
anti-social-behaviour,Force,"{'latitude': '51.517741', 'street': {'id': 1676209, 'name': 'On or near Langham Place'}, 'longitude': '-0.143126'}",,,,125214024,,2024-12,London
anti-social-behaviour,Force,"{'latitude': '51.511534', 'street': {'id': 1678076, 'name': 'On or near Lisle Street'}, 'longitude': '-0.130495'}",,,,125214554,,2024-12,London
anti-social-behaviour,Force,"{'latitude': '51.510468', 'street': {'id': 1678029, 'name': 'On or near Leicester Square'}, 'longitude': '-0.130769'}",,,,125214557,,2024-12,London
anti-social-behaviour,Force,"{'latitude': '51.516820', 'street': {'id': 1678501, 'name': 'On or near Dyott Street'}, 'longitude': '-0.127583'}",,,,125215206,,2024-12,London
anti-social-behaviour,Force,"{'latitude': '51.509044', 'street': {'id': 1679072, 'name': 'On or near John Adam Street'}, 'longitude': '-0.123247'}",,,,125214893,,2024-12,London
anti-social-behaviour,Force,"{'latitude': '51.498335', 'street': {'id': 1677860, 'name': 'On or near Abbey Orchard Street'}, 'longitude': '-0.131193'}",,,,125214232,,2024-12,London
anti-social-behaviour,Force,"{'latitude': '51.518106', 'street': {'id': 1680014, 'name': 'On or near Race Track'}, 'longitude': '-0.116951'}",,,,125214238,,2024-12,London
anti-social-behaviour,Force,"{'latitude': '51.509886', 'street': {'id': 1678385, 'name': 'On or near Irving Street'}, 'longitude': '-0.128646'}",,,,125214789,,2024-12,London
anti-social-behaviour,Force,"{'latitude': '51.510373', 'street': {'id': 1679248, 'name': 'On or near Savoy Court'}, 'longitude': '-0.120887'}",,,,125214990,,2024-12,London
anti-social-behaviour,Force,"{'latitude': '51.516820', 'street': {'id': 1678501, 'name': 'On or near Dyott Street'}, 'longitude': '-0.127583'}",,,,125215588,,2024-12,London
anti-social-behaviour,Force,"{'latitude': '51.511312', 'street': {'id': 1677127, 'name': 'On or near Lower James Street'}, 'longitude': '-0.136326'}",,,,125215659,,2024-12,London
anti-social-behaviour,Force,"{'latitude': '51.506720', 'street': {'id': 1675553, 'name': 'On or near Curzon Street'}, 'longitude': '-0.147883'}",,,,125214630,,2024-12,London
anti-social-behaviour,Force,"{'latitude': '51.495936', 'street': {'id': 1676456, 'name': 'On or near Carlisle Place'}, 'longitude': '-0.141491'}",,,,125215081,,2024-12,London
anti-social-behaviour,Force,"{'latitude': '51.516820', 'street': {'id': 1678501, 'name': 'On or near Dyott Street'}, 'longitude': '-0.127583'}",,,,125215775,,2024-12,London
anti-social-behaviour,Force,"{'latitude': '51.514684', 'street': {'id': 1676465, 'name': 'On or near Argyll Street'}, 'longitude': '-0.140844'}",,,,125215795,,2024-12,London
anti-social-behaviour,Force,"{'latitude': '51.518043', 'street': {'id': 1679235, 'name': 'On or near Further/higher Educational Building'}, 'longitude': '-0.122651'}",,,,125216061,,2024-12,London
anti-social-behaviour,Force,"{'latitude': '51.507970', 'street': {'id': 1677656, 'name': 'On or near Charles Ii Street'}, 'longitude': '-0.133162'}",,,,125216083,,2024-12,London
anti-social-behaviour,Force,"{'latitude': '51.508990', 'street': {'id': 1676361, 'name': 'On or near Albemarle Street'}, 'longitude': '-0.141882'}",,,,125216090,,2024-12,London
anti-social-behaviour,Force,"{'latitude': '51.515088', 'street': {'id': 1676649, 'name': 'On or near Hills Place'}, 'longitude': '-0.140222'}",,,,125216096,,2024-12,London
anti-social-behaviour,Force,"{'latitude': '51.512744', 'street': {'id': 1678474, 'name': 'On or near Litchfield Street'}, 'longitude': '-0.127995'}",,,,125215041,,2024-12,London
anti-social-behaviour,Force,"{'latitude': '51.511583', 'street': {'id': 1677675, 'name': 'On or near Theatre/concert Hall'}, 'longitude': '-0.133287'}",,,,125215678,,2024-12,London
anti-social-behaviour,Force,"{'latitude': '51.508450', 'street': {'id': 1676091, 'name': 'On or near Nightclub'}, 'longitude': '-0.143266'}",,,,125215916,,2024-12,London
anti-social-behaviour,Force,"{'latitude': '51.509251', 'street': {'id': 1677545, 'name': ""On or near St James's Market""}, 'longitude': '-0.133398'}",,,,125217083,,2024-12,London
anti-social-behaviour,Force,"{'latitude': '51.507911', 'street': {'id': 1676686, 'name': 'On or near Conference/exhibition Centre'}, 'longitude': '-0.139635'}",,,,125217217,,2024-12,London
anti-social-behaviour,Force,"{'latitude': '51.507725', 'street': {'id': 1678750, 'name': 'On or near Corner House Street'}, 'longitude': '-0.125708'}",,,,125217345,,2024-12,London
anti-social-behaviour,Force,"{'latitude': '51.511022', 'street': {'id': 1679585, 'name': 'On or near Strand'}, 'longitude': '-0.119880'}",,,,125216247,,2024-12,London
anti-social-behaviour,Force,"{'latitude': '51.500978', 'street': {'id': 1678704, 'name': 'On or near Bridge Street'}, 'longitude': '-0.125524'}",,,,125004984,,2024-12,London
anti-social-behaviour,Force,"{'latitude': '51.510468', 'street': {'id': 1678029, 'name': 'On or near Leicester Square'}, 'longitude': '-0.130769'}",,,,125216260,,2024-12,London
anti-social-behaviour,Force,"{'latitude': '51.513046', 'street': {'id': 1679162, 'name': 'On or near Theatre/concert Hall'}, 'longitude': '-0.122679'}",,,,125216264,,2024-12,London
anti-social-behaviour,Force,"{'latitude': '51.506138', 'street': {'id': 1678957, 'name': 'On or near Whitehall Place'}, 'longitude': '-0.124836'}",,,,125216367,,2024-12,London
anti-social-behaviour,Force,"{'latitude': '51.503196', 'street': {'id': 1678183, 'name': 'On or near Downing Street'}, 'longitude': '-0.127032'}",,,,125216523,,2024-12,London
anti-social-behaviour,Force,"{'latitude': '51.512166', 'street': {'id': 1678947, 'name': 'On or near Shopping Area'}, 'longitude': '-0.123818'}",,,,125216527,,2024-12,London
anti-social-behaviour,Force,"{'latitude': '51.515753', 'street': {'id': 1676083, 'name': ""On or near John Prince's Street""}, 'longitude': '-0.143092'}",,,,125217959,,2024-12,London
anti-social-behaviour,Force,"{'latitude': '51.507115', 'street': {'id': 1676040, 'name': 'On or near Bolton Street'}, 'longitude': '-0.144408'}",,,,125217140,,2024-12,London
anti-social-behaviour,Force,"{'latitude': '51.513057', 'street': {'id': 1675886, 'name': 'On or near Shopping Area'}, 'longitude': '-0.144844'}",,,,125216434,,2024-12,London
anti-social-behaviour,Force,"{'latitude': '51.516785', 'street': {'id': 1678562, 'name': 'On or near Theatre/concert Hall'}, 'longitude': '-0.126532'}",,,,125217641,,2024-12,London
anti-social-behaviour,Force,"{'latitude': '51.513052', 'street': {'id': 1677758, 'name': 'On or near Bourchier Street'}, 'longitude': '-0.132681'}",,,,125217642,,2024-12,London
anti-social-behaviour,Force,"{'latitude': '51.512449', 'street': {'id': 1680063, 'name': 'On or near Surrey Street'}, 'longitude': '-0.115772'}",,,,125217645,,2024-12,London
anti-social-behaviour,Force,"{'latitude': '51.510389', 'street': {'id': 1679043, 'name': 'On or near Bedford Street'}, 'longitude': '-0.124157'}",,,,125217649,,2024-12,London
anti-social-behaviour,Force,"{'latitude': '51.502823', 'street': {'id': 1679478, 'name': 'On or near Theme/adventure Park'}, 'longitude': '-0.119257'}",,,,125217848,,2024-12,London
anti-social-behaviour,Force,"{'latitude': '51.519697', 'street': {'id': 1677336, 'name': 'On or near A5204'}, 'longitude': '-0.134917'}",,,,125217895,,2024-12,London
anti-social-behaviour,Force,"{'latitude': '51.514610', 'street': {'id': 1679603, 'name': 'On or near Wild Street'}, 'longitude': '-0.120410'}",,,,125216996,,2024-12,London
anti-social-behaviour,Force,"{'latitude': '51.506541', 'street': {'id': 1675916, 'name': 'On or near Ashburton Place'}, 'longitude': '-0.144533'}",,,,125217096,,2024-12,London
anti-social-behaviour,Force,"{'latitude': '51.498553', 'street': {'id': 1677378, 'name': 'On or near Caxton Street'}, 'longitude': '-0.135291'}",,,,125218096,,2024-12,London
anti-social-behaviour,Force,"{'latitude': '51.494818', 'street': {'id': 1679973, 'name': 'On or near Pratt Walk'}, 'longitude': '-0.117089'}",,,,125218160,,2024-12,London
anti-social-behaviour,Force,"{'latitude': '51.513052', 'street': {'id': 1677758, 'name': 'On or near Bourchier Street'}, 'longitude': '-0.132681'}",,,,125218165,,2024-12,London
anti-social-behaviour,Force,"{'latitude': '51.517476', 'street': {'id': 1677079, 'name': 'On or near Supermarket'}, 'longitude': '-0.136579'}",,,,125217990,,2024-12,London
anti-social-behaviour,Force,"{'latitude': '51.511054', 'street': {'id': 1677302, 'name': 'On or near Theatre/concert Hall'}, 'longitude': '-0.135400'}",,,,125218182,,2024-12,London
anti-social-behaviour,Force,"{'latitude': '51.516668', 'street': {'id': 1676419, 'name': 'On or near Margaret Street'}, 'longitude': '-0.141210'}",,,,125217562,,2024-12,London
anti-social-behaviour,Force,"{'latitude': '51.511783', 'street': {'id': 1678199, 'name': 'On or near Nightclub'}, 'longitude': '-0.129778'}",,,,125217743,,2024-12,London
anti-social-behaviour,Force,"{'latitude': '51.506270', 'street': {'id': 1676932, 'name': 'On or near Pall Mall Place'}, 'longitude': '-0.137627'}",,,,125218317,,2024-12,London
anti-social-behaviour,Force,"{'latitude': '51.516178', 'street': {'id': 1677833, 'name': 'On or near Further/higher Educational Building'}, 'longitude': '-0.131904'}",,,,125218376,,2024-12,London
anti-social-behaviour,Force,"{'latitude': '51.518456', 'street': {'id': 1677599, 'name': 'On or near Percy Street'}, 'longitude': '-0.133209'}",,,,125218033,,2024-12,London
anti-social-behaviour,Force,"{'latitude': '51.514684', 'street': {'id': 1676465, 'name': 'On or near Argyll Street'}, 'longitude': '-0.140844'}",,,,125210157,,2024-12,London
anti-social-behaviour,Force,"{'latitude': '51.507182', 'street': {'id': 1678986, 'name': 'On or near Craven Street'}, 'longitude': '-0.124332'}",,,,125218497,,2024-12,London
anti-social-behaviour,Force,"{'latitude': '51.500978', 'street': {'id': 1678704, 'name': 'On or near Bridge Street'}, 'longitude': '-0.125524'}",,,,125004306,,2024-12,London
anti-social-behaviour,Force,"{'latitude': '51.515088', 'street': {'id': 1676649, 'name': 'On or near Hills Place'}, 'longitude': '-0.140222'}",,,,125218498,,2024-12,London
anti-social-behaviour,Force,"{'latitude': '51.510520', 'street': {'id': 1677019, 'name': 'On or near Glasshouse Street'}, 'longitude': '-0.137439'}",,,,125218720,,2024-12,London
anti-social-behaviour,Force,"{'latitude': '51.511623', 'street': {'id': 1678738, 'name': 'On or near Rose Street'}, 'longitude': '-0.125951'}",,,,125219129,,2024-12,London
anti-social-behaviour,Force,"{'latitude': '51.509491', 'street': {'id': 1678539, 'name': 'On or near William Iv Street'},